GPS,FfÊ∆V6Ê6vv∆ÊcV&ÊÜ&v∆vçY∆Ü∆Ê&∆6ÊF∆÷cFÜÊ∆÷c∆152.8217,W,0.00,13.83,171113,,,A*49
BMP085,1000,139,101025,25.01
GPS,$GPVTG,13.83,T,,M,0.00,N,0.0,K,A*34
GPS,$GPGGA,141417.000,5131.0376,N,00152.8218,W,1,08,1.2,102.9,M,48.1,M,,0000*45
GPS,$GPRMC,141417.000,A,5131.0376,N,00152.8218,W,0.00,13.83,171113,,,A*46
BMP085,2000,139,101028,24.76
GPS,$GPVTG,13.83,T,,M,0.00,N,0.0,K,A*34
GPS,$GPGGA,141418.000,5131.0375,N,00152.8218,W,1,08,1.2,102.4,M,48.1,M,,0000*44
GPS,$GPRMC,141418.000,A,5131.0375,N,00152.8218,W,0.00,13.83,171113,,,A*4A
BMP085,3000,139,101016,25.76
GPS,$GPVTG,13.83,T,,M,0.00,N,0.0,K,A*34
GPS,$GPGGA,141419.000,5131.0374,N,00152.8218,W,1,08,1.2,102.0,M,48.1,M,,0000*40
GPS,$GPRMC,141419.000,A,5131.0374,N,00152.8218,W,0.00,13.83,171113,,,A*4A
BMP085,4000,139,101004,26.76
GPS,$GPVTG,13.83,T,,M,0.00,N,0.0,K,A*34
GPS,$GPGGA,141420.000,5131.0372,N,00152.8219,W,1,08,1.2,101.2,M,48.1,M,,0000*4C
GPS,$GPGSA,A,3,14,11,32,28,20,01,17,31,,,,,1.6,1.2,1.2*3C
GPS,$GPGSV,3,1,10,01,75,107,33,32,73,074,26,20,66,238,34,11,48,135,31*78
GPS,$GPGSV,3,2,10,17,39,302,31,23,19,179,,14,17,038,25,28,13,251,26*75
GPS,$GPGSV,3,3,10,19,08,159,13,31,08,085,21*73
GPS,$GPRMC,141420.000,A,5131.0372,N,00152.8219,W,0.00,13.83,171113,,,A*47
BMP085,5000,139,101010,26.26
GPS,$GPVTG,13.83,T,,M,0.00,N,0.0,K,A*34
GPS,$GPGGA,141421.000,5131.0371,N,00152.8219,W,1,08,1.2,100.5,M,48.1,M,,0000*48
GPS,$GPRMC,141421.000,A,5131.0371,N,00152.8219,W,0.00,13.83,171113,,,A*45
BMP085,6000,139,101016,25.76
GPS,$GPVTG,13.83,T,,M,0.00,N,0.0,K,A*34
GPS,$GPGGA,141422.000,5131.0371,N,00152.8218,W,1,08,1.2,100.0,M,48.1,M,,0000*4F
GPS,$GPRMC,141422.000,A,5131.0371,N,00152.8218,W,0.00,13.83,171113,,,A*47
BMP085,7000,139,101007,26.51
GPS,$GPVTG,13.83,T,,M,0.00,N,0.0,K,A*34
GPS,$GPGGA,141423.000,5131.0370,N,00152.8219,W,1,08,1.2,99.5,M,48.1,M,,0000*7A
GPS,$GPRMC,141423.000,A,5131.0370,N,00152.8219,W,0.00,13.83,171113,,,A*46
BMP085,8000,139,101010,26.26
GPS,$GPVTG,13.83,T,,M,0.00,N,0.0,K,A*34
GPS,$GPGGA,141424.000,5131.0369,N,00152.8219,W,1,08,1.2,99.2,M,48.1,M,,0000*72
GPS,$GPRMC,141424.000,A,5131.0369,N,00152.8219,W,0.00,13.83,171113,,,A*49
BMP085,9000,139,101013,26.01
GPS,$GPVTG,13.83,T,,M,0.00,N,0.0,K,A*34
GPS,$GPGGA,141425.000,5131.0367,N,00152.8220,W,1,08,1.2,99.1,M,48.1,M,,0000*74
GPS,$GPGSA,A,3,14,11,32,28,20,01,17,31,,,,,1.6,1.2,1.2*3C
GPS,$GPGSV,3,1,10,01,75,107,32,32,73,074,21,20,66,238,35,11,48,135,32*7C
GPS,$GPGSV,3,2,10,17,39,302,30,23,19,179,,14,17,038,24,28,13,251,25*76
GPS,$GPGSV,3,3,10,19,08,159,12,31,08,085,21*72
GPS,$GPRMC,141425.000,A,5131.0367,N,00152.8220,W,0.00,13.83,171113,,,A*4C
BMP085,10000,139,101016,25.76
GPS,$GPVTG,13.83,T,,M,0.00,N,0.0,K,A*34
GPS,$GPGGA,141426.000,5131.0366,N,00152.8219,W,1,08,1.2,98.3,M,48.1,M,,0000*7F
GPS,$GPRMC,141426.000,A,5131.0366,N,00152.8219,W,0.00,13.83,171113,,,A*44
BMP085,11000,139,101013,26.01
GPS,$GPVTG,13.83,T,,M,0.00,N,0.0,K,A*34
GPS,$GPGGA,141427.000,5131.0366,N,00152.8219,W,1,08,1.2,98.0,M,48.1,M,,0000*7D
GPS,$GPRMC,141427.000,A,5131.0366,N,00152.8219,W,0.00,13.83,171113,,,A*45
BMP085,12000,139,101013,26.01
GPS,$GPVTG,13.83,T,,M,0.00,N,0.0,K,A*34
GPS,$GPGGA,141428.000,5131.0366,N,00152.8218,W,1,08,1.2,97.8,M,48.1,M,,0000*74
GPS,$GPRMC,141428.000,A,5131.0366,N,00152.8218,W,0.00,13.83,171113,,,A*4B
BMP085,13000,139,101019,25.51
GPS,$GPVTG,13.83,T,,M,0.00,N,0.0,K,A*34
GPS,$GPGGA,141429.000,5131.0364,N,00152.8219,W,1,08,1.2,97.2,M,48.1,M,,0000*7C
GPS,$GPRMC,141429.000,A,5131.0364,N,00152.8219,W,0.00,13.83,171113,,,A*49
BMP085,14000,139,101010,26.26
GPS,$GPVTG,13.83,T,,M,0.00,N,0.0,K,A*34
GPS,$GPGGA,141430.000,5131.0363,N,00152.8220,W,1,08,1.2,96.5,M,48.1,M,,0000*7F
GPS,$GPGSA,A,3,14,11,32,28,20,01,17,31,,,,,1.6,1.2,1.2*3C
GPS,$GPGSV,3,1,10,01,75,107,32,32,73,074,29,20,66,238,35,11,48,135,31*77
GPS,$GPGSV,3,2,10,17,39,302,34,23,19,179,09,14,17,038,24,28,13,251,25*7B
GPS,$GPGSV,3,3,10,19,08,159,12,31,08,085,17*77
GPS,$GPRMC,141430.000,A,5131.0363,N,00152.8220,W,0.00,13.83,171113,,,A*4C
BMP085,15000,139,101016,25.76
GPS,$GPVTG,13.83,T,,M,0.00,N,0.0,K,A*34
GPS,$GPGGA,141431.000,5131.0362,N,00152.8220,W,1,08,1.2,95.8,M,48.1,M,,0000*71
GPS,$GPRMC,141431.000,A,5131.0362,N,00152.8220,W,0.00,13.83,171113,,,A*4C
BMP085,16000,138,101019,25.51
GPS,$GPVTG,13.83,T,,M,0.00,N,0.0,K,A*34
GPS,$GPGGA,141432.000,5131.0360,N,00152.8219,W,1,08,1.2,95.5,M,48.1,M,,0000*77
GPS,$GPRMC,141432.000,A,5131.0360,N,00152.8219,W,1.03,163.37,171113,,,A*7C
BMP085,17000,139,101010,26.26
GPS,$GPVTG,163.37,T,,M,1.03,N,1.9,K,A*07
GPS,$GPGGA,141433.000,5131.0360,N,00152.8219,W,1,08,1.2,95.0,M,48.1,M,,0000*73
GPS,$GPRMC,141433.000,A,5131.0360,N,00152.8219,W,0.00,163.37,171113,,,A*7F
BMP085,18000,139,101013,26.01
GPS,$GPVTG,163.37,T,,M,0.00,N,0.0,K,A*0D
GPS,$GPGGA,141434.000,5131.0361,N,00152.8220,W,1,07,1.6,94.9,M,48.1,M,,0000*7C
GPS,$GPRMC,141434.000,A,5131.0361,N,00152.8220,W,0.00,163.37,171113,,,A*73
BMP085,19000,139,101019,25.51
GPS,$GPVTG,163.37,T,,M,0.00,N,0.0,K,A*0D
GPS,$GPGGA,141435.000,5131.0361,N,00152.8221,W,1,07,1.6,95.0,M,48.1,M,,0000*74
GPS,$GPGSA,A,3,14,11,32,20,01,17,31,,,,,,2.5,1.6,1.9*39
GPS,$GPGSV,3,1,10,01,75,107,35,32,73,074,35,20,66,238,35,11,48,135,29*74
GPS,$GPGSV,3,2,10,17,39,302,36,23,19,179,07,14,17,038,25,28,13,251,22*71
GPS,$GPGSV,3,3,10,19,08,159,12,31,08,085,18*78
GPS,$GPRMC,141435.000,A,5131.0361,N,00152.8221,W,0.00,163.37,171113,,,A*73
BMP085,20000,139,101019,25.51
GPS,$GPVTG,163.37,T,,M,0.00,N,0.0,K,A*0D
GPS,$GPGGA,141436.000,5131.0360,N,00152.8223,W,1,08,1.2,94.7,M,48.1,M,,0000*79
GPS,$GPRMC,141436.000,A,5131.0360,N,00152.8223,W,0.00,163.37,171113,,,A*73
BMP085,21000,139,101016,25.76
GPS,$GPVTG,163.37,T,,M,0.00,N,0.0,K,A*0D
GPS,$GPGGA,141437.000,5131.0361,N,00152.8222,W,1,08,1.2,94.8,M,48.1,M,,0000*77
GPS,$GPRMC,141437.000,A,5131.0361,N,00152.8222,W,0.00,163.37,171113,,,A*72
BMP085,22000,139,101016,25.76
GPS,$GPVTG,163.37,T,,M,0.00,N,0.0,K,A*0D
GPS,$GPGGA,141438.000,5131.0362,N,00152.8222,W,1,08,1.2,94.9,M,48.1,M,,0000*7A
GPS,$GPRMC,141438.000,A,5131.0362,N,00152.8222,W,0.00,163.37,171113,,,A*7E
BMP085,23000,139,101019,25.51
GPS,$GPVTG,163.37,T,,M,0.00,N,0.0,K,A*0D
GPS,$GPGGA,141439.000,5131.0363,N,00152.8222,W,1,08,1.2,94.9,M,48.1,M,,0000*7A
GPS,$GPRMC,141439.000,A,5131.0363,N,00152.8222,W,0.00,163.37,171113,,,A*7E
BMP085,24000,139,101019,25.51
GPS,$GPVTG,163.37,T,,M,0.00,N,0.0,K,A*0D
GPS,$GPGGA,141440.000,5131.0367,N,00152.8224,W,1,09,0.9,96.0,M,48.1,M,,0000*76
GPS,$GPGSA,A,3,14,11,32,28,20,01,17,23,31,,,,1.4,0.9,1.1*36
GPS,$GPGSV,3,1,10,01,75,107,39,32,73,074,42,20,66,238,27,11,48,135,32*71
GPS,$GPGSV,3,2,10,17,39,302,31,23,19,179,14,14,17,038,29,28,13,251,23*79
GPS,$GPGSV,3,3,10,19,08,159,12,31,08,085,24*77
GPS,$GPRMC,141440.000,A,5131.0367,N,00152.8224,W,0.00,163.37,171113,,,A*72
BMP085,25000,139,101007,26.51
GPS,$GPVTG,163.37,T,,M,0.00,N,0.0,K,A*0D
GPS,$GPGGA,141441.000,5131.0370,N,00152.8226,W,1,09,0.9,96.8,M,48.1,M,,0000*7B
GPS,$GPRMC,141441.000,A,5131.0370,N,00152.8226,W,0.00,163.37,171113,,,A*77
BMP085,26000,139,101019,25.51
GPS,$GPVTG,163.37,T,,M,0.00,N,0.0,K,A*0D
GPS,$GPGGA,141442.000,5131.0374,N,00152.8228,W,1,09,0.9,97.7,M,48.1,M,,0000*7C
GPS,$GPRMC,141442.000,A,5131.0374,N,00152.8228,W,0.00,163.37,171113,,,A*7E
BMP085,27000,139,101019,25.51
GPS,$GPVTG,163.37,T,,M,0.00,N,0.0,K,A*0D
GPS,$GPGGA,141443.000,5131.0374,N,00152.8231,W,1,08,1.0,98.1,M,48.1,M,,0000*75
GPS,$GPRMC,141443.000,A,5131.0374,N,00152.8231,W,0.00,163.37,171113,,,A*77
BMP085,28000,139,101013,26.01
GPS,$GPVTG,163.37,T,,M,0.00,N,0.0,K,A*0D
GPS,$GPGGA,141444.000,5131.0375,N,00152.8231,W,1,09,0.9,98.5,M,48.1,M,,0000*7E
GPS,$GPRMC,141444.000,A,5131.0375,N,00152.8231,W,0.00,163.37,171113,,,A*71
BMP085,29000,139,101019,25.51
GPS,$GPVTG,163.37,T,,M,0.00,N,0.0,K,A*0D
GPS,$GPGGA,141445.000,5131.0378,N,00152.8230,W,1,09,0.9,98.9,M,48.1,M,,0000*7F
GPS,$GPGSA,A,3,14,11,32,28,20,01,17,23,31,,,,1.4,0.9,1.1*36
GPS,$GPGSV,3,1,10,01,75,107,29,32,73,074,26,20,66,238,24,11,48,135,26*74
GPS,$GPGSV,3,2,10,17,39,302,36,23,19,179,20,14,17,038,26,28,13,251,18*7E
GPS,$GPGSV,3,3,10,19,08,159,12,31,08,085,12*72
GPS,$GPRMC,141445.000,A,5131.0378,N,00152.8230,W,1.42,24.53,171113,,,A*4B
BMP085,30000,139,101019,25.51
GPS,$GPVTG,24.53,T,,M,1.42,N,2.6,K,A*3E
GPS,$GPGGA,141446.000,5131.0382,N,00152.8229,W,1,08,1.0,99.1,M,48.1,M,,0000*71
GPS,$GPRMC,141446.000,A,5131.0382,N,00152.8229,W,1.00,9.15,171113,,,A*7E
BMP085,31000,139,101016,25.76
GPS,$GPVTG,9.15,T,,M,1.00,N,1.8,K,A*08
GPS,$GPGGA,141447.000,5131.0382,N,00152.8232,W,1,08,1.0,99.4,M,48.1,M,,0000*7F
GPS,$GPRMC,141447.000,A,5131.0382,N,00152.8232,W,0.00,9.15,171113,,,A*74
BMP085,32000,139,101019,25.51
GPS,$GPVTG,9.15,T,,M,0.00,N,0.0,K,A*00
GPS,$GPGGA,141448.000,5131.0382,N,00152.8235,W,1,08,1.0,100.1,M,48.1,M,,0000*43
GPS,$GPRMC,141448.000,A,5131.0382,N,00152.8235,W,0.00,9.15,171113,,,A*7C
BMP085,33000,139,101025,25.01
GPS,$GPVTG,9.15,T,,M,0.00,N,0.0,K,A*00
GPS,$GPGGA,141449.000,5131.0381,N,00152.8237,W,1,08,1.0,100.3,M,48.1,M,,0000*41
GPS,$GPRMC,141449.000,A,5131.0381,N,00152.8237,W,0.00,9.15,171113,,,A*7C
BMP085,34000,139,101031,24.51
GPS,$GPVTG,9.15,T,,M,0.00,N,0.0,K,A*00
GPS,$GPGGA,141450.000,5131.0379,N,00152.8238,W,1,08,1.0,100.6,M,48.1,M,,0000*44
GPS,$GPGSA,A,3,14,11,32,28,20,01,17,23,,,,,1.6,1.0,1.3*3C
GPS,$GPGSV,3,1,10,01,75,107,30,32,73,074,31,20,66,238,34,11,48,135,32*7E
GPS,$GPGSV,3,2,10,17,39,302,42,23,19,179,20,14,17,038,28,28,13,251,26*7E
GPS,$GPGSV,3,3,10,19,08,159,12,31,08,085,11*71
GPS,$GPRMC,141450.000,A,5131.0379,N,00152.8238,W,0.00,9.15,171113,,,A*7C
BMP085,35000,139,101016,25.76
GPS,$GPVTG,9.15,T,,M,0.00,N,0.0,K,A*00
GPS,$GPGGA,141451.000,5131.0378,N,00152.8239,W,1,08,1.0,100.5,M,48.1,M,,0000*46
GPS,$GPRMC,141451.000,A,5131.0378,N,00152.8239,W,0.00,9.15,171113,,,A*7D
BMP085,36000,139,101019,25.51
GPS,$GPVTG,9.15,T,,M,0.00,N,0.0,K,A*00
GPS,$GPGGA,141452.000,5131.0378,N,00152.8237,W,1,09,0.9,100.3,M,48.1,M,,0000*44
GPS,$GPRMC,141452.000,A,5131.0378,N,00152.8237,W,0.00,9.15,171113,,,A*70
BMP085,37000,139,101019,25.51
GPS,$GPVTG,9.15,T,,M,0.00,N,0.0,K,A*00
GPS,$GPGGA,141453.000,5131.0377,N,00152.8236,W,1,09,0.9,100.1,M,48.1,M,,0000*49
GPS,$GPRMC,141453.000,A,5131.0377,N,00152.8236,W,0.00,9.15,171113,,,A*7F
BMP085,38000,139,101016,25.76
GPS,$GPVTG,9.15,T,,M,0.00,N,0.0,K,A*00
GPS,$GPGGA,141454.000,5131.0375,N,00152.8238,W,1,09,0.9,100.2,M,48.1,M,,0000*41
GPS,$GPRMC,141454.000,A,5131.0375,N,00152.8238,W,0.00,9.15,171113,,,A*74
BMP085,39000,139,101019,25.51
GPS,$GPVTG,9.15,T,,M,0.00,N,0.0,K,A*00
GPS,$GPGGA,141455.000,5131.0374,N,00152.8240,W,1,09,0.9,100.7,M,48.1,M,,0000*4B
GPS,$GPGSA,A,3,14,11,32,28,20,01,17,23,31,,,,1.4,0.9,1.1*36
GPS,$GPGSV,3,1,10,01,75,107,30,32,73,074,35,20,66,238,33,11,48,135,38*77
GPS,$GPGSV,3,2,10,17,39,302,41,23,19,179,27,14,17,038,20,28,13,251,27*73
GPS,$GPGSV,3,3,10,19,08,159,07,31,08,085,22*75
GPS,$GPRMC,141455.000,A,5131.0374,N,00152.8240,W,0.00,9.15,171113,,,A*7B
BMP085,40000,139,101016,25.76
GPS,$GPVTG,9.15,T,,M,0.00,N,0.0,K,A*00
GPS,$GPGGA,141456.000,5131.0374,N,00152.8240,W,1,09,0.9,101.0,M,48.1,M,,0000*4E
GPS,$GPRMC,141456.000,A,5131.0374,N,00152.8240,W,0.00,9.15,171113,,,A*78
BMP085,41000,139,101016,25.76
GPS,$GPVTG,9.15,T,,M,0.00,N,0.0,K,A*00
GPS,$GPGGA,141457.000,5131.0373,N,00152.8242,W,1,09,0.9,101.6,M,48.1,M,,0000*4C
GPS,$GPRMC,141457.000,A,5131.0373,N,00152.8242,W,0.00,9.15,171113,,,A*7C
BMP085,42000,139,101025,25.01
GPS,$GPVTG,9.15,T,,M,0.00,N,0.0,K,A*00
GPS,$GPGGA,141458.000,5131.0372,N,00152.8244,W,1,09,0.9,102.1,M,48.1,M,,0000*40
GPS,$GPRMC,141458.000,A,5131.0372,N,00152.8244,W,0.00,9.15,171113,,,A*74
BMP085,43000,139,101028,24.76
GPS,$GPVTG,9.15,T,,M,0.00,N,0.0,K,A*00
GPS,$GPGGA,141459.000,5131.0370,N,00152.8247,W,1,09,0.9,102.6,M,48.1,M,,0000*47
GPS,$GPRMC,141459.000,A,5131.0370,N,00152.8247,W,0.00,9.15,171113,,,A*74
BMP085,44000,139,101022,25.26
GPS,$GPVTG,9.15,T,,M,0.00,N,0.0,K,A*00
GPS,$GPGGA,141500.000,5131.0368,N,00152.8249,W,1,09,0.9,102.7,M,48.1,M,,0000*4C
GPS,$GPGSA,A,3,14,11,32,28,20,01,17,23,31,,,,1.4,0.9,1.1*36
GPS,$GPGSV,3,1,10,01,75,107,26,32,73,074,34,20,66,238,33,11,48,135,39*70
GPS,$GPGSV,3,2,10,17,39,302,42,23,19,179,26,14,17,038,26,28,13,251,26*76
GPS,$GPGSV,3,3,10,19,08,159,08,31,08,085,21*79
GPS,$GPRMC,141500.000,A,5131.0368,N,00152.8249,W,0.00,9.15,171113,,,A*7E
BMP085,45000,139,101025,25.01
GPS,$GPVTG,9.15,T,,M,0.00,N,0.0,K,A*00
GPS,$GPGGA,141501.000,5131.0366,N,00152.8252,W,1,09,0.9,103.4,M,48.1,M,,0000*4B
GPS,$GPRMC,141501.000,A,5131.0366,N,00152.8252,W,0.00,9.15,171113,,,A*7B
BMP085,46000,139,101028,24.76
GPS,$GPVTG,9.15,T,,M,0.00,N,0.0,K,A*00
GPS,$GPGGA,141502.000,5131.0365,N,00152.8255,W,1,09,0.9,104.2,M,48.1,M,,0000*4D
GPS,$GPRMC,141502.000,A,5131.0365,N,00152.8255,W,0.00,9.15,171113,,,A*7C
BMP085,47000,139,101028,24.76
GPS,$GPVTG,9.15,T,,M,0.00,N,0.0,K,A*00
GPS,$GPGGA,141503.000,5131.0364,N,00152.8258,W,1,09,0.9,105.2,M,48.1,M,,0000*41
GPS,$GPRMC,141503.000,A,5131.0364,N,00152.8258,W,0.00,9.15,171113,,,A*71
BMP085,48000,140,101031,24.51
GPS,$GPVTG,9.15,T,,M,0.00,N,0.0,K,A*00
GPS,$GPGGA,141504.000,5131.0364,N,00152.8260,W,1,09,0.9,106.0,M,48.1,M,,0000*4C
GPS,$GPRMC,141504.000,A,5131.0364,N,00152.8260,W,0.00,9.15,171113,,,A*7D
BMP085,49000,139,101028,24.76
GPS,$GPVTG,9.15,T,,M,0.00,N,0.0,K,A*00
GPS,$GPGGA,141505.000,5131.0364,N,00152.8262,W,1,09,0.9,106.8,M,48.1,M,,0000*47
GPS,$GPGSA,A,3,14,11,32,28,20,01,17,23,31,,,,1.4,0.9,1.1*36
GPS,$GPGSV,3,1,10,01,75,107,27,32,73,074,33,20,66,238,33,11,48,135,38*77
GPS,$GPGSV,3,2,10,17,39,302,43,23,19,179,25,14,17,038,23,28,13,251,26*71
GPS,$GPGSV,3,3,10,19,08,159,,31,08,085,21*71
GPS,$GPRMC,141505.000,A,5131.0364,N,00152.8262,W,0.00,9.15,171113,,,A*7E
BMP085,50000,140,101025,25.01
GPS,$GPVTG,9.15,T,,M,0.00,N,0.0,K,A*00
GPS,$GPGGA,141506.000,5131.0363,N,00152.8264,W,1,09,0.9,107.6,M,48.1,M,,0000*4A
GPS,$GPRMC,141506.000,A,5131.0363,N,00152.8264,W,0.00,9.15,171113,,,A*7C
BMP085,51000,140,101034,24.26
GPS,$GPVTG,9.15,T,,M,0.00,N,0.0,K,A*00
GPS,$GPGGA,141507.000,5131.0362,N,00152.8266,W,1,09,0.9,108.3,M,48.1,M,,0000*42
GPS,$GPRMC,141507.000,A,5131.0362,N,00152.8266,W,0.00,9.15,171113,,,A*7E
BMP085,52000,140,101031,24.51
GPS,$GPVTG,9.15,T,,M,0.00,N,0.0,K,A*00
GPS,$GPGGA,141508.000,5131.0362,N,00152.8268,W,1,09,0.9,109.0,M,48.1,M,,0000*41
GPS,$GPRMC,141508.000,A,5131.0362,N,00152.8268,W,0.00,9.15,171113,,,A*7F
BMP085,53000,140,101037,24.01
GPS,$GPVTG,9.15,T,,M,0.00,N,0.0,K,A*00
GPS,$GPGGA,141509.000,5131.0361,N,00152.8270,W,1,09,0.9,109.7,M,48.1,M,,0000*4D
GPS,$GPRMC,141509.000,A,5131.0361,N,00152.8270,W,0.00,9.15,171113,,,A*74
BMP085,54000,140,101022,25.26
GPS,$GPVTG,9.15,T,,M,0.00,N,0.0,K,A*00
GPS,$GPGGA,141510.000,5131.0361,N,00152.8272,W,1,09,0.9,110.2,M,48.1,M,,0000*4A
GPS,$GPGSA,A,3,14,11,32,28,20,01,17,23,31,,,,1.4,0.9,1.1*36
GPS,$GPGSV,3,1,10,01,75,107,31,32,73,074,34,20,66,238,32,11,48,135,38*76
GPS,$GPGSV,3,2,10,17,39,302,43,23,19,179,25,14,17,038,23,28,13,251,26*71
GPS,$GPGSV,3,3,10,19,08,159,10,31,08,085,22*73
GPS,$GPRMC,141510.000,A,5131.0361,N,00152.8272,W,0.00,9.15,171113,,,A*7E
BMP085,55000,140,101025,25.01
GPS,$GPVTG,9.15,T,,M,0.00,N,0.0,K,A*00
GPS,$GPGGA,141511.000,5131.0360,N,00152.8273,W,1,09,0.9,110.8,M,48.1,M,,0000*41
GPS,$GPRMC,141511.000,A,5131.0360,N,00152.8273,W,0.00,9.15,171113,,,A*7F
BMP085,56000,140,101028,24.76
GPS,$GPVTG,9.15,T,,M,0.00,N,0.0,K,A*00
GPS,$GPGGA,141512.000,5131.0359,N,00152.8274,W,1,08,1.1,111.2,M,48.1,M,,0000*4C
GPS,$GPRMC,141512.000,A,5131.0359,N,00152.8274,W,0.00,9.15,171113,,,A*71
BMP085,57000,140,101034,24.26
GPS,$GPVTG,9.15,T,,M,0.00,N,0.0,K,A*00
GPS,$GPGGA,141513.000,5131.0358,N,00152.8276,W,1,09,0.9,111.6,M,48.1,M,,0000*42
GPS,$GPRMC,141513.000,A,5131.0358,N,00152.8276,W,0.00,9.15,171113,,,A*73
BMP085,58000,140,101028,24.76
GPS,$GPVTG,9.15,T,,M,0.00,N,0.0,K,A*00
GPS,$GPGGA,141514.000,5131.0357,N,00152.8279,W,1,09,0.9,112.1,M,48.1,M,,0000*41
GPS,$GPRMC,141514.000,A,5131.0357,N,00152.8279,W,0.00,9.15,171113,,,A*74
BMP085,59000,140,101031,24.51
GPS,$GPVTG,9.15,T,,M,0.00,N,0.0,K,A*00
GPS,$GPGGA,141515.000,5131.0357,N,00152.8280,W,1,09,0.9,112.4,M,48.1,M,,0000*43
GPS,$GPGSA,A,3,14,11,32,28,20,01,17,23,31,,,,1.4,0.9,1.1*36
GPS,$GPGSV,3,1,10,01,75,107,31,32,73,074,33,20,66,238,32,11,48,135,38*71
GPS,$GPGSV,3,2,10,17,39,302,43,23,19,179,24,14,17,038,19,28,13,251,25*7A
GPS,$GPGSV,3,3,10,19,08,159,07,31,08,085,20*77
GPS,$GPRMC,141515.000,A,5131.0357,N,00152.8280,W,0.00,9.15,171113,,,A*73
BMP085,60000,140,101019,25.51
GPS,$GPVTG,9.15,T,,M,0.00,N,0.0,K,A*00
GPS,$GPGGA,141516.000,5131.0357,N,00152.8281,W,1,09,0.9,112.5,M,48.1,M,,0000*40
GPS,$GPRMC,141516.000,A,5131.0357,N,00152.8281,W,0.00,9.15,171113,,,A*71
BMP085,61000,140,101028,24.76
GPS,$GPVTG,9.15,T,,M,0.00,N,0.0,K,A*00
GPS,$GPGGA,141517.000,5131.0356,N,00152.8281,W,1,09,0.9,112.6,M,48.1,M,,0000*43
GPS,$GPRMC,141517.000,A,5131.0356,N,00152.8281,W,0.00,9.15,171113,,,A*71
BMP085,62000,140,101028,24.76
GPS,$GPVTG,9.15,T,,M,0.00,N,0.0,K,A*00
GPS,$GPGGA,141518.000,5131.0355,N,00152.8281,W,1,09,0.9,112.9,M,48.1,M,,0000*40
GPS,$GPRMC,141518.000,A,5131.0355,N,00152.8281,W,0.00,9.15,171113,,,A*7D
BMP085,63000,140,101022,25.26
GPS,$GPVTG,9.15,T,,M,0.00,N,0.0,K,A*00
GPS,$GPGGA,141519.000,5131.0355,N,00152.8281,W,1,09,0.9,113.1,M,48.1,M,,0000*48
GPS,$GPRMC,141519.000,A,5131.0355,N,00152.8281,W,0.00,9.15,171113,,,A*7C
BMP085,64000,140,101022,25.26
GPS,$GPVTG,9.15,T,,M,0.00,N,0.0,K,A*00
GPS,$GPGGA,141520.000,5131.0354,N,00152.8282,W,1,09,0.9,113.5,M,48.1,M,,0000*44
GPS,$GPGSA,A,3,14,11,32,28,20,01,17,23,31,,,,1.4,0.9,1.1*36
GPS,$GPGSV,3,1,10,01,74,108,30,32,72,074,33,20,67,238,32,11,47,135,37*7E
GPS,$GPGSV,3,2,10,17,40,301,43,23,19,179,24,14,17,038,19,28,12,251,25*76
GPS,$GPGSV,3,3,10,31,08,084,17,19,07,159,07*7D
GPS,$GPRMC,141520.000,A,5131.0354,N,00152.8282,W,0.00,9.15,171113,,,A*74
BMP085,65000,140,101013,26.01
GPS,$GPVTG,9.15,T,,M,0.00,N,0.0,K,A*00
GPS,$GPGGA,141521.000,5131.0353,N,00152.8283,W,1,09,0.9,113.9,M,48.1,M,,0000*4F
GPS,$GPRMC,141521.000,A,5131.0353,N,00152.8283,W,0.00,9.15,171113,,,A*73
BMP085,66000,140,101016,25.76
GPS,$GPVTG,9.15,T,,M,0.00,N,0.0,K,A*00
GPS,$GPGGA,141522.000,5131.0352,N,00152.8283,W,1,09,0.9,113.9,M,48.1,M,,0000*4D
GPS,$GPRMC,141522.000,A,5131.0352,N,00152.8283,W,0.00,9.15,171113,,,A*71
BMP085,67000,140,101019,25.51
GPS,$GPVTG,9.15,T,,M,0.00,N,0.0,K,A*00
GPS,$GPGGA,141523.000,5131.0352,N,00152.8282,W,1,09,0.9,114.1,M,48.1,M,,0000*42
GPS,$GPRMC,141523.000,A,5131.0352,N,00152.8282,W,0.00,9.15,171113,,,A*71
BMP085,68000,140,101031,24.51
GPS,$GPVTG,9.15,T,,M,0.00,N,0.0,K,A*00
GPS,$GPGGA,141524.000,5131.0352,N,00152.8282,W,1,08,1.0,114.2,M,48.1,M,,0000*4F
GPS,$GPRMC,141524.000,A,5131.0352,N,00152.8282,W,0.00,9.15,171113,,,A*76
BMP085,69000,140,101016,25.76
GPS,$GPVTG,9.15,T,,M,0.00,N,0.0,K,A*00
GPS,$GPGGA,141525.000,5131.0352,N,00152.8282,W,1,08,1.0,114.3,M,48.1,M,,0000*4F
GPS,$GPGSA,A,3,14,11,32,28,20,01,17,23,,,,,1.6,1.0,1.3*3C
GPS,$GPGSV,3,1,10,01,74,108,30,32,72,074,33,20,67,238,31,11,47,135,37*7D
GPS,$GPGSV,3,2,10,17,40,301,43,23,19,179,23,14,17,038,20,28,12,251,25*7B
GPS,$GPGSV,3,3,10,31,08,084,12,19,07,159,*7F
GPS,$GPRMC,141525.000,A,5131.0352,N,00152.8282,W,0.00,9.15,171113,,,A*77
BMP085,70000,140,101019,25.51
GPS,$GPVTG,9.15,T,,M,0.00,N,0.0,K,A*00
GPS,$GPGGA,141526.000,5131.0351,N,00152.8283,W,1,08,1.0,114.6,M,48.1,M,,0000*4B
GPS,$GPRMC,141526.000,A,5131.0351,N,00152.8283,W,0.00,9.15,171113,,,A*76
BMP085,71000,140,101031,24.51
GPS,$GPVTG,9.15,T,,M,0.00,N,0.0,K,A*00
GPS,$GPGGA,141527.000,5131.0350,N,00152.8284,W,1,08,1.0,114.5,M,48.1,M,,0000*4F
GPS,$GPRMC,141527.000,A,5131.0350,N,00152.8284,W,0.00,9.15,171113,,,A*71
BMP085,72000,140,101016,25.76
GPS,$GPVTG,9.15,T,,M,0.00,N,0.0,K,A*00
GPS,$GPGGA,141528.000,5131.0350,N,00152.8285,W,1,08,1.0,114.8,M,48.1,M,,0000*4C
GPS,$GPRMC,141528.000,A,5131.0350,N,00152.8285,W,0.00,9.15,171113,,,A*7F
BMP085,73000,140,101022,25.26
GPS,$GPVTG,9.15,T,,M,0.00,N,0.0,K,A*00
GPS,$GPGGA,141529.000,5131.0350,N,00152.8285,W,1,08,1.0,114.9,M,48.1,M,,0000*4C
GPS,$GPRMC,141529.000,A,5131.0350,N,00152.8285,W,0.00,9.15,171113,,,A*7E
BMP085,74000,140,101025,25.01
GPS,$GPVTG,9.15,T,,M,0.00,N,0.0,K,A*00
GPS,$GPGGA,141530.000,5131.0350,N,00152.8286,W,1,08,1.0,115.2,M,48.1,M,,0000*4D
GPS,$GPGSA,A,3,14,11,32,28,20,01,17,23,,,,,1.6,1.0,1.3*3C
GPS,$GPGSV,3,1,10,01,74,108,31,32,72,074,32,20,67,238,31,11,47,135,37*7D
GPS,$GPGSV,3,2,10,17,40,301,43,23,19,179,22,14,17,038,20,28,12,251,25*7A
GPS,$GPGSV,3,3,10,31,08,084,14,19,07,159,*79
GPS,$GPRMC,141530.000,A,5131.0350,N,00152.8286,W,0.00,9.15,171113,,,A*75
BMP085,75000,141,101028,24.76
GPS,$GPVTG,9.15,T,,M,0.00,N,0.0,K,A*00
GPS,$GPGGA,141531.000,5131.0349,N,00152.8288,W,1,08,1.0,115.1,M,48.1,M,,0000*49
GPS,$GPRMC,141531.000,A,5131.0349,N,00152.8288,W,0.00,9.15,171113,,,A*72
BMP085,76000,140,101022,25.26
GPS,$GPVTG,9.15,T,,M,0.00,N,0.0,K,A*00
GPS,$GPGGA,141532.000,5131.0347,N,00152.8289,W,1,08,1.0,115.2,M,48.1,M,,0000*46
GPS,$GPRMC,141532.000,A,5131.0347,N,00152.8289,W,0.00,9.15,171113,,,A*7E
BMP085,77000,141,101031,24.51
GPS,$GPVTG,9.15,T,,M,0.00,N,0.0,K,A*00
GPS,$GPGGA,141533.000,5131.0345,N,00152.8291,W,1,08,1.0,115.1,M,48.1,M,,0000*4F
GPS,$GPRMC,141533.000,A,5131.0345,N,00152.8291,W,0.00,9.15,171113,,,A*74
BMP085,78000,141,101022,25.26
GPS,$GPVTG,9.15,T,,M,0.00,N,0.0,K,A*00
GPS,$GPGGA,141534.000,5131.0343,N,00152.8291,W,1,08,1.0,115.2,M,48.1,M,,0000*4D
GPS,$GPRMC,141534.000,A,5131.0343,N,00152.8291,W,0.00,9.15,171113,,,A*75
BMP085,79000,141,101034,24.26
GPS,$GPVTG,9.15,T,,M,0.00,N,0.0,K,A*00
GPS,$GPGGA,141535.000,5131.0341,N,00152.8293,W,1,08,1.0,115.1,M,48.1,M,,0000*4F
GPS,$GPGSA,A,3,14,11,32,28,20,01,17,23,,,,,1.6,1.0,1.3*3C
GPS,$GPGSV,3,1,10,01,74,108,33,32,72,074,32,20,67,238,31,11,47,135,37*7F
GPS,$GPGSV,3,2,10,17,40,301,43,23,19,179,21,14,17,038,21,28,12,251,24*79
GPS,$GPGSV,3,3,10,31,08,084,16,19,07,159,07*7C
GPS,$GPRMC,141535.000,A,5131.0341,N,00152.8293,W,0.00,9.15,171113,,,A*74
BMP085,80000,141,101028,24.76
GPS,$GPVTG,9.15,T,,M,0.00,N,0.0,K,A*00
GPS,$GPGGA,141536.000,5131.0339,N,00152.8294,W,1,08,1.0,115.2,M,48.1,M,,0000*47
GPS,$GPRMC,141536.000,A,5131.0339,N,00152.8294,W,0.00,9.15,171113,,,A*7F
BMP085,81000,141,101020,25.42
GPS,$GPVTG,9.15,T,,M,0.00,N,0.0,K,A*00
GPS,$GPGGA,141537.000,5131.0338,N,00152.8294,W,1,08,1.0,114.7,M,48.1,M,,0000*43
GPS,$GPRMC,141537.000,A,5131.0338,N,00152.8294,W,0.00,9.15,171113,,,A*7F
BMP085,82000,141,101031,24.51
GPS,$GPVTG,9.15,T,,M,0.00,N,0.0,K,A*00
GPS,$GPGGA,141538.000,5131.0339,N,00152.8294,W,1,08,1.0,114.6,M,48.1,M,,0000*4C
GPS,$GPRMC,141538.000,A,5131.0339,N,00152.8294,W,0.00,9.15,171113,,,A*71
BMP085,83000,141,101025,25.01
GPS,$GPVTG,9.15,T,,M,0.00,N,0.0,K,A*00
GPS,$GPGGA,141539.000,5131.0340,N,00152.8293,W,1,08,1.0,114.4,M,48.1,M,,0000*46
GPS,$GPRMC,141539.000,A,5131.0340,N,00152.8293,W,0.00,9.15,171113,,,A*79
BMP085,84000,141,101022,25.26
GPS,$GPVTG,9.15,T,,M,0.00,N,0.0,K,A*00
GPS,$GPGGA,141540.000,5131.0339,N,00152.8293,W,1,08,1.0,114.2,M,48.1,M,,0000*40
GPS,$GPGSA,A,3,14,11,32,28,20,01,17,23,,,,,1.6,1.0,1.3*3C
GPS,$GPGSV,3,1,10,01,74,108,34,32,72,074,32,20,67,238,31,11,47,135,33*7C
GPS,$GPGSV,3,2,10,17,40,301,43,23,19,179,20,14,17,038,22,28,12,251,24*7B
GPS,$GPGSV,3,3,10,31,08,084,20,19,07,159,*7E
GPS,$GPRMC,141540.000,A,5131.0339,N,00152.8293,W,0.00,9.15,171113,,,A*79
BMP085,85000,141,101028,24.76
GPS,$GPVTG,9.15,T,,M,0.00,N,0.0,K,A*00
GPS,$GPGGA,141541.000,5131.0338,N,00152.8294,W,1,09,0.9,114.2,M,48.1,M,,0000*4E
GPS,$GPRMC,141541.000,A,5131.0338,N,00152.8294,W,0.00,9.15,171113,,,A*7E
BMP085,86000,141,101029,24.67
GPS,$GPVTG,9.15,T,,M,0.00,N,0.0,K,A*00
GPS,$GPGGA,141542.000,5131.0339,N,00152.8293,W,1,09,0.9,113.4,M,48.1,M,,0000*4A
GPS,$GPRMC,141542.000,A,5131.0339,N,00152.8293,W,0.00,9.15,171113,,,A*7B
BMP085,87000,141,101031,24.51
GPS,$GPVTG,9.15,T,,M,0.00,N,0.0,K,A*00
GPS,$GPGGA,141543.000,5131.0339,N,00152.8291,W,1,09,0.9,113.3,M,48.1,M,,0000*4E
GPS,$GPRMC,141543.000,A,5131.0339,N,00152.8291,W,0.00,9.15,171113,,,A*78
BMP085,88000,141,101029,24.67
GPS,$GPVTG,9.15,T,,M,0.00,N,0.0,K,A*00
GPS,$GPGGA,141544.000,5131.0339,N,00152.8292,W,1,09,0.9,113.8,M,48.1,M,,0000*41
GPS,$GPRMC,141544.000,A,5131.0339,N,00152.8292,W,0.00,9.15,171113,,,A*7C
BMP085,89000,141,101032,24.42
GPS,$GPVTG,9.15,T,,M,0.00,N,0.0,K,A*00
GPS,$GPGGA,141545.000,5131.0341,N,00152.8290,W,1,09,0.9,113.5,M,48.1,M,,0000*40
GPS,$GPGSA,A,3,14,11,32,28,20,01,17,23,31,,,,1.4,0.9,1.1*36
GPS,$GPGSV,3,1,10,01,74,108,28,32,72,074,25,20,67,238,31,11,47,135,32*76
GPS,$GPGSV,3,2,10,17,40,301,43,23,19,179,21,14,17,038,23,28,12,251,24*7B
GPS,$GPGSV,3,3,10,31,08,084,24,19,07,159,*7A
GPS,$GPRMC,141545.000,A,5131.0341,N,00152.8290,W,1.01,37.60,171113,,,A*4F
BMP085,90000,141,101026,24.92
GPS,$GPVTG,37.60,T,,M,1.01,N,1.9,K,A*37
GPS,$GPGGA,141546.000,5131.0340,N,00152.8291,W,1,09,0.9,112.7,M,48.1,M,,0000*40
GPS,$GPRMC,141546.000,A,5131.0340,N,00152.8291,W,0.00,37.60,171113,,,A*4C
BMP085,91000,141,101017,25.67
GPS,$GPVTG,37.60,T,,M,0.00,N,0.0,K,A*3F
GPS,$GPGGA,141547.000,5131.0339,N,00152.8293,W,1,09,0.9,112.1,M,48.1,M,,0000*4B
GPS,$GPRMC,141547.000,A,5131.0339,N,00152.8293,W,0.00,37.60,171113,,,A*41
BMP085,92000,141,101035,24.17
GPS,$GPVTG,37.60,T,,M,0.00,N,0.0,K,A*3F
GPS,$GPGGA,141548.000,5131.0336,N,00152.8297,W,1,08,1.0,111.0,M,48.1,M,,0000*44
GPS,$GPRMC,141548.000,A,5131.0336,N,00152.8297,W,1.15,202.58,171113,,,A*7F
BMP085,93000,141,101026,24.92
GPS,$GPVTG,202.58,T,,M,1.15,N,2.1,K,A*06
GPS,$GPGGA,141549.000,5131.0333,N,00152.8298,W,1,09,0.9,110.0,M,48.1,M,,0000*47
GPS,$GPRMC,141549.000,A,5131.0333,N,00152.8298,W,0.00,202.58,171113,,,A*71
BMP085,94000,141,101020,25.42
GPS,$GPVTG,202.58,T,,M,0.00,N,0.0,K,A*00
GPS,$GPGGA,141550.000,5131.0331,N,00152.8301,W,1,08,0.9,109.4,M,48.1,M,,0000*41
GPS,$GPGSA,A,3,14,11,28,20,01,17,23,31,,,,,1.5,0.9,1.2*35
GPS,$GPGSV,3,1,10,01,74,108,28,32,72,073,20,20,67,238,32,11,47,135,30*75
GPS,$GPGSV,3,2,10,17,40,301,42,23,19,179,21,14,17,038,29,28,12,251,24*70
GPS,$GPGSV,3,3,10,31,08,084,22,19,07,159,12*7F
GPS,$GPRMC,141550.000,A,5131.0331,N,00152.8301,W,0.00,202.58,171113,,,A*7A
BMP085,95000,141,101017,25.67
GPS,$GPVTG,202.58,T,,M,0.00,N,0.0,K,A*00
GPS,$GPGGA,141551.000,5131.0331,N,00152.8304,W,1,09,0.9,108.3,M,48.1,M,,0000*42
GPS,$GPRMC,141551.000,A,5131.0331,N,00152.8304,W,0.00,202.58,171113,,,A*7E
BMP085,96000,141,101026,24.92
GPS,$GPVTG,202.58,T,,M,0.00,N,0.0,K,A*00
GPS,$GPGGA,141552.000,5131.0330,N,00152.8305,W,1,09,0.9,107.4,M,48.1,M,,0000*49
GPS,$GPRMC,141552.000,A,5131.0330,N,00152.8305,W,0.00,202.58,171113,,,A*7D
BMP085,97000,141,101020,25.42
GPS,$GPVTG,202.58,T,,M,0.00,N,0.0,K,A*00
GPS,$GPGGA,141553.000,5131.0330,N,00152.8305,W,1,09,0.9,106.1,M,48.1,M,,0000*4C
GPS,$GPRMC,141553.000,A,5131.0330,N,00152.8305,W,0.00,202.58,171113,,,A*7C
BMP085,98000,141,101032,24.42
GPS,$GPVTG,202.58,T,,M,0.00,N,0.0,K,A*00
GPS,$GPGGA,141554.000,5131.0331,N,00152.8304,W,1,09,0.9,105.1,M,48.1,M,,0000*48
GPS,$GPRMC,141554.000,A,5131.0331,N,00152.8304,W,0.00,202.58,171113,,,A*7B
BMP085,99000,141,101023,25.18
GPS,$GPVTG,202.58,T,,M,0.00,N,0.0,K,A*00
GPS,$GPGGA,141555.000,5131.0335,N,00152.8301,W,1,09,0.9,103.9,M,48.1,M,,0000*46
GPS,$GPGSA,A,3,14,11,32,28,20,01,17,23,31,,,,1.4,0.9,1.1*36
GPS,$GPGSV,3,1,10,01,74,108,32,32,72,073,21,20,67,238,32,11,47,135,35*7A
GPS,$GPGSV,3,2,10,17,40,301,43,23,19,179,22,14,17,038,28,28,12,251,35*73
GPS,$GPGSV,3,3,10,31,08,084,22,19,07,159,14*79
GPS,$GPRMC,141555.000,A,5131.0335,N,00152.8301,W,1.67,29.42,171113,,,A*4B
BMP085,100000,141,101017,25.67
GPS,$GPVTG,29.42,T,,M,1.67,N,3.1,K,A*32
GPS,$GPGGA,141556.000,5131.0340,N,00152.8297,W,1,09,0.9,103.3,M,48.1,M,,0000*43
GPS,$GPRMC,141556.000,A,5131.0340,N,00152.8297,W,1.59,24.06,171113,,,A*44
BMP085,101000,141,101026,24.92
GPS,$GPVTG,24.06,T,,M,1.59,N,2.9,K,A*3B
GPS,$GPGGA,141557.000,5131.0343,N,00152.8294,W,1,09,0.9,102.2,M,48.1,M,,0000*42
GPS,$GPRMC,141557.000,A,5131.0343,N,00152.8294,W,0.00,24.06,171113,,,A*48
BMP085,102000,141,101020,25.42
GPS,$GPVTG,24.06,T,,M,0.00,N,0.0,K,A*3D
GPS,$GPGGA,141558.000,5131.0347,N,00152.8293,W,1,08,1.0,101.5,M,48.1,M,,0000*43
GPS,$GPRMC,141558.000,A,5131.0347,N,00152.8293,W,1.43,33.59,171113,,,A*4E
BMP085,103000,141,101017,25.67
GPS,$GPVTG,33.59,T,,M,1.43,N,2.6,K,A*33
GPS,$GPGGA,141559.000,5131.0350,N,00152.8290,W,1,09,0.9,100.7,M,48.1,M,,0000*4D
GPS,$GPRMC,141559.000,A,5131.0350,N,00152.8290,W,0.00,33.59,171113,,,A*4C
BMP085,104000,141,101011,26.18
GPS,$GPVTG,33.59,T,,M,0.00,N,0.0,K,A*31
GPS,$GPGGA,141600.000,5131.0353,N,00152.8287,W,1,08,1.0,100.2,M,48.1,M,,0000*4B
GPS,$GPGSA,A,3,14,11,32,28,20,01,17,23,,,,,1.6,1.0,1.3*3C
GPS,$GPGSV,3,1,10,01,74,108,29,32,72,073,32,20,67,238,32,11,47,135,24*72
GPS,$GPGSV,3,2,10,17,40,301,35,23,19,179,21,14,17,038,25,28,12,251,22*7A
GPS,$GPGSV,3,3,10,31,08,084,20,19,07,159,*7E
GPS,$GPRMC,141600.000,A,5131.0353,N,00152.8287,W,1.00,37.65,171113,,,A*4C
BMP085,105000,141,101014,25.93
GPS,$GPVTG,37.65,T,,M,1.00,N,1.9,K,A*33
GPS,$GPGGA,141601.000,5131.0355,N,00152.8284,W,1,09,0.9,100.1,M,48.1,M,,0000*45
GPS,$GPRMC,141601.000,A,5131.0355,N,00152.8284,W,0.00,37.65,171113,,,A*49
BMP085,106000,141,101014,25.93
GPS,$GPVTG,37.65,T,,M,0.00,N,0.0,K,A*3A
GPS,$GPGGA,141602.000,5131.0358,N,00152.8282,W,1,09,0.9,100.0,M,48.1,M,,0000*4C
GPS,$GPRMC,141602.000,A,5131.0358,N,00152.8282,W,0.00,37.65,171113,,,A*41
BMP085,107000,141,101014,25.93
GPS,$GPVTG,37.65,T,,M,0.00,N,0.0,K,A*3A
GPS,$GPGGA,141603.000,5131.0360,N,00152.8278,W,1,09,0.9,100.7,M,48.1,M,,0000*44
GPS,$GPRMC,141603.000,A,5131.0360,N,00152.8278,W,0.00,37.65,171113,,,A*4E
BMP085,108000,141,101017,25.67
GPS,$GPVTG,37.65,T,,M,0.00,N,0.0,K,A*3A
GPS,$GPGGA,141604.000,5131.0363,N,00152.8273,W,1,09,0.9,101.5,M,48.1,M,,0000*48
GPS,$GPRMC,141604.000,A,5131.0363,N,00152.8273,W,1.02,50.57,171113,,,A*42
BMP085,109000,141,101014,25.93
GPS,$GPVTG,50.57,T,,M,1.02,N,1.9,K,A*31
GPS,$GPGGA,141605.000,5131.0366,N,00152.8268,W,1,09,0.9,102.2,M,48.1,M,,0000*42
GPS,$GPGSA,A,3,14,11,32,28,20,01,17,23,31,,,,1.4,0.9,1.1*36
GPS,$GPGSV,3,1,10,01,74,108,24,32,72,073,34,20,67,238,33,11,47,135,19*76
GPS,$GPGSV,3,2,10,17,40,301,34,23,19,179,34,14,17,038,27,28,12,251,20*7F
GPS,$GPGSV,3,3,10,31,08,084,21,19,07,159,18*76
GPS,$GPRMC,141605.000,A,5131.0366,N,00152.8268,W,1.02,18.61,171113,,,A*45
BMP085,110000,141,101017,25.67
GPS,$GPVTG,18.61,T,,M,1.02,N,1.9,K,A*38
GPS,$GPGGA,141606.000,5131.0369,N,00152.8266,W,1,09,0.9,102.9,M,48.1,M,,0000*4B
GPS,$GPRMC,141606.000,A,5131.0369,N,00152.8266,W,0.00,18.61,171113,,,A*44
BMP085,111000,141,101014,25.93
GPS,$GPVTG,18.61,T,,M,0.00,N,0.0,K,A*33
GPS,$GPGGA,141607.000,5131.0370,N,00152.8262,W,1,09,0.9,103.5,M,48.1,M,,0000*4B
GPS,$GPRMC,141607.000,A,5131.0370,N,00152.8262,W,0.00,18.61,171113,,,A*49
BMP085,112000,142,101020,25.42
GPS,$GPVTG,18.61,T,,M,0.00,N,0.0,K,A*33
GPS,$GPGGA,141608.000,5131.0373,N,00152.8261,W,1,09,0.9,104.0,M,48.1,M,,0000*46
GPS,$GPRMC,141608.000,A,5131.0373,N,00152.8261,W,0.00,18.61,171113,,,A*46
BMP085,113000,142,101014,25.93
GPS,$GPVTG,18.61,T,,M,0.00,N,0.0,K,A*33
GPS,$GPGGA,141609.000,5131.0376,N,00152.8261,W,1,08,1.0,104.0,M,48.1,M,,0000*4B
GPS,$GPRMC,141609.000,A,5131.0376,N,00152.8261,W,0.00,18.61,171113,,,A*42
BMP085,114000,141,101011,26.18
GPS,$GPVTG,18.61,T,,M,0.00,N,0.0,K,A*33
GPS,$GPGGA,141610.000,5131.0378,N,00152.8262,W,1,08,1.0,104.4,M,48.1,M,,0000*4A
GPS,$GPGSA,A,3,14,11,32,28,20,01,17,23,,,,,1.6,1.0,1.3*3C
GPS,$GPGSV,3,1,10,01,74,108,23,32,72,073,35,20,67,238,33,11,47,135,27*7D
GPS,$GPGSV,3,2,10,17,40,301,32,23,19,179,33,14,17,038,21,28,12,251,19*72
GPS,$GPGSV,3,3,10,31,08,084,08,19,07,159,07*73
GPS,$GPRMC,141610.000,A,5131.0378,N,00152.8262,W,0.00,18.61,171113,,,A*47
BMP085,115000,142,101017,25.67
GPS,$GPVTG,18.61,T,,M,0.00,N,0.0,K,A*33
GPS,$GPGGA,141611.000,5131.0380,N,00152.8265,W,1,08,1.0,104.6,M,48.1,M,,0000*49
GPS,$GPRMC,141611.000,A,5131.0380,N,00152.8265,W,0.00,18.61,171113,,,A*46
BMP085,116000,142,101023,25.18
GPS,$GPVTG,18.61,T,,M,0.00,N,0.0,K,A*33
GPS,$GPGGA,141612.000,5131.0381,N,00152.8268,W,1,09,0.9,105.1,M,48.1,M,,0000*49
GPS,$GPRMC,141612.000,A,5131.0381,N,00152.8268,W,0.00,18.61,171113,,,A*49
BMP085,117000,142,101017,25.67
GPS,$GPVTG,18.61,T,,M,0.00,N,0.0,K,A*33
GPS,$GPGGA,141613.000,5131.0381,N,00152.8268,W,1,09,0.9,105.4,M,48.1,M,,0000*4D
GPS,$GPRMC,141613.000,A,5131.0381,N,00152.8268,W,0.00,18.61,171113,,,A*48
BMP085,118000,142,101017,25.67
GPS,$GPVTG,18.61,T,,M,0.00,N,0.0,K,A*33
GPS,$GPGGA,141614.000,5131.0382,N,00152.8268,W,1,09,0.9,105.3,M,48.1,M,,0000*4E
GPS,$GPRMC,141614.000,A,5131.0382,N,00152.8268,W,0.00,18.61,171113,,,A*4C
BMP085,119000,142,101026,24.92
GPS,$GPVTG,18.61,T,,M,0.00,N,0.0,K,A*33
GPS,$GPGGA,141615.000,5131.0383,N,00152.8267,W,1,08,0.9,105.5,M,48.1,M,,0000*46
GPS,$GPGSA,A,3,14,11,32,28,20,17,23,31,,,,,1.5,0.9,1.2*35
GPS,$GPGSV,3,1,10,01,74,108,19,32,72,073,36,20,67,238,33,11,47,135,35*74
GPS,$GPGSV,3,2,10,17,40,301,37,23,19,179,34,14,17,038,19,28,12,251,18*7A
GPS,$GPGSV,3,3,10,31,08,084,23,19,07,159,11*7D
GPS,$GPRMC,141615.000,A,5131.0383,N,00152.8267,W,0.00,18.61,171113,,,A*43
BMP085,120000,142,101011,26.18
GPS,$GPVTG,18.61,T,,M,0.00,N,0.0,K,A*33
GPS,$GPGGA,141616.000,5131.0384,N,00152.8266,W,1,08,0.9,105.8,M,48.1,M,,0000*4E
GPS,$GPRMC,141616.000,A,5131.0384,N,00152.8266,W,0.00,18.61,171113,,,A*46
BMP085,121000,142,101017,25.67
GPS,$GPVTG,18.61,T,,M,0.00,N,0.0,K,A*33
GPS,$GPGGA,141617.000,5131.0385,N,00152.8266,W,1,08,0.9,106.3,M,48.1,M,,0000*46
GPS,$GPRMC,141617.000,A,5131.0385,N,00152.8266,W,0.00,18.61,171113,,,A*46
BMP085,122000,142,101023,25.18
GPS,$GPVTG,18.61,T,,M,0.00,N,0.0,K,A*33
GPS,$GPGGA,141618.000,5131.0386,N,00152.8266,W,1,09,0.9,106.5,M,48.1,M,,0000*4D
GPS,$GPRMC,141618.000,A,5131.0386,N,00152.8266,W,0.00,18.61,171113,,,A*4A
BMP085,123000,142,101014,25.93
GPS,$GPVTG,18.61,T,,M,0.00,N,0.0,K,A*33
GPS,$GPGGA,141619.000,5131.0386,N,00152.8266,W,1,09,0.9,106.6,M,48.1,M,,0000*4F
GPS,$GPRMC,141619.000,A,5131.0386,N,00152.8266,W,0.00,18.61,171113,,,A*4B
BMP085,124000,142,101017,25.67
GPS,$GPVTG,18.61,T,,M,0.00,N,0.0,K,A*33
GPS,$GPGGA,141620.000,5131.0387,N,00152.8265,W,1,09,0.9,106.7,M,48.1,M,,0000*46
GPS,$GPGSA,A,3,14,11,32,28,20,01,17,23,31,,,,1.4,0.9,1.1*36
GPS,$GPGSV,3,1,10,01,74,108,20,32,72,073,37,20,67,239,27,11,47,135,33*7D
GPS,$GPGSV,3,2,10,17,40,301,36,23,20,179,35,14,17,038,22,28,12,250,17*76
GPS,$GPGSV,3,3,10,31,08,084,24,19,07,159,17*7C
GPS,$GPRMC,141620.000,A,5131.0387,N,00152.8265,W,0.00,18.61,171113,,,A*43
BMP085,125000,142,101014,25.93
GPS,$GPVTG,18.61,T,,M,0.00,N,0.0,K,A*33
GPS,$GPGGA,141621.000,5131.0389,N,00152.8264,W,1,09,0.9,107.0,M,48.1,M,,0000*4E
GPS,$GPRMC,141621.000,A,5131.0389,N,00152.8264,W,0.00,18.61,171113,,,A*4D
BMP085,126000,142,101011,26.18
GPS,$GPVTG,18.61,T,,M,0.00,N,0.0,K,A*33
GPS,$GPGGA,141622.000,5131.0392,N,00152.8261,W,1,09,0.9,107.0,M,48.1,M,,0000*42
GPS,$GPRMC,141622.000,A,5131.0392,N,00152.8261,W,0.00,18.61,171113,,,A*41
BMP085,127000,142,101023,25.18
GPS,$GPVTG,18.61,T,,M,0.00,N,0.0,K,A*33
GPS,$GPGGA,141623.000,5131.0393,N,00152.8259,W,1,09,0.9,107.0,M,48.1,M,,0000*49
GPS,$GPRMC,141623.000,A,5131.0393,N,00152.8259,W,0.00,18.61,171113,,,A*4A
BMP085,128000,142,101023,25.18
GPS,$GPVTG,18.61,T,,M,0.00,N,0.0,K,A*33
GPS,$GPGGA,141624.000,5131.0395,N,00152.8256,W,1,09,0.9,107.2,M,48.1,M,,0000*45
GPS,$GPRMC,141624.000,A,5131.0395,N,00152.8256,W,0.00,18.61,171113,,,A*44
BMP085,129000,142,101014,25.93
GPS,$GPVTG,18.61,T,,M,0.00,N,0.0,K,A*33
GPS,$GPGGA,141625.000,5131.0398,N,00152.8247,W,1,09,0.9,107.0,M,48.1,M,,0000*4B
GPS,$GPGSA,A,3,14,11,32,28,20,01,17,23,31,,,,1.4,0.9,1.1*36
GPS,$GPGSV,3,1,10,01,74,108,24,32,72,073,37,20,67,239,22,11,47,135,32*7D
GPS,$GPGSV,3,2,10,17,40,301,36,23,20,179,27,14,17,038,28,28,12,250,16*7E
GPS,$GPGSV,3,3,10,31,08,084,21,19,07,159,21*7C
GPS,$GPRMC,141625.000,A,5131.0398,N,00152.8247,W,2.44,67.44,171113,,,A*45
BMP085,130000,142,101014,25.93
GPS,$GPVTG,67.44,T,,M,2.44,N,4.5,K,A*3F
GPS,$GPGGA,141626.000,5131.0401,N,00152.8232,W,1,09,0.9,106.9,M,48.1,M,,0000*45
GPS,$GPRMC,141626.000,A,5131.0401,N,00152.8232,W,3.47,81.93,171113,,,A*43
BMP085,131000,142,101011,26.18
GPS,$GPVTG,81.93,T,,M,3.47,N,6.4,K,A*3C
GPS,$GPGGA,141627.000,5131.0401,N,00152.8211,W,1,09,0.9,107.2,M,48.1,M,,0000*4F
GPS,$GPRMC,141627.000,A,5131.0401,N,00152.8211,W,4.54,97.77,171113,,,A*4B
BMP085,132000,142,101014,25.93
GPS,$GPVTG,97.77,T,,M,4.54,N,8.4,K,A*3A
GPS,$GPGGA,141628.000,5131.0394,N,00152.8188,W,1,09,0.9,108.0,M,48.1,M,,0000*45
GPS,$GPRMC,141628.000,A,5131.0394,N,00152.8188,W,6.27,128.76,171113,,,A*7E
BMP085,133000,142,100999,27.18
GPS,$GPVTG,128.76,T,,M,6.27,N,11.6,K,A*32
GPS,$GPGGA,141629.000,5131.0379,N,00152.8162,W,1,09,0.9,108.3,M,48.1,M,,0000*40
GPS,$GPRMC,141629.000,A,5131.0379,N,00152.8162,W,8.13,138.24,171113,,,A*77
BMP085,134000,142,101005,26.68
GPS,$GPVTG,138.24,T,,M,8.13,N,15.1,K,A*3E
GPS,$GPGGA,141630.000,5131.0358,N,00152.8126,W,1,09,0.9,108.7,M,48.1,M,,0000*4F
GPS,$GPGSA,A,3,14,11,32,28,20,01,17,23,31,,,,1.4,0.9,1.1*36
GPS,$GPGSV,3,1,10,01,74,108,36,32,72,073,30,20,67,239,30,11,47,135,35*7D
GPS,$GPGSV,3,2,10,17,40,301,25,23,20,179,25,14,17,038,25,28,12,250,21*77
GPS,$GPGSV,3,3,10,31,08,084,23,19,07,159,22*7D
GPS,$GPRMC,141630.000,A,5131.0358,N,00152.8126,W,10.69,137.77,171113,,,A*41
BMP085,135000,142,100987,28.18
GPS,$GPVTG,137.77,T,,M,10.69,N,19.8,K,A*06
GPS,$GPGGA,141631.000,5131.0329,N,00152.8085,W,1,09,0.9,108.8,M,48.1,M,,0000*4F
GPS,$GPRMC,141631.000,A,5131.0329,N,00152.8085,W,13.32,144.43,171113,,,A*40
BMP085,136000,142,100990,27.93
GPS,$GPVTG,144.43,T,,M,13.32,N,24.7,K,A*09
GPS,$GPGGA,141632.000,5131.0293,N,00152.8041,W,1,09,0.9,108.9,M,48.1,M,,0000*45
GPS,$GPRMC,141632.000,A,5131.0293,N,00152.8041,W,15.94,146.97,171113,,,A*4A
BMP085,137000,142,100976,29.10
GPS,$GPVTG,146.97,T,,M,15.94,N,29.5,K,A*07
GPS,$GPGGA,141633.000,5131.0253,N,00152.7990,W,1,08,1.0,108.8,M,48.1,M,,0000*4A
GPS,$GPRMC,141633.000,A,5131.0253,N,00152.7990,W,18.10,143.24,171113,,,A*41
BMP085,138000,142,100973,29.35
GPS,$GPVTG,143.24,T,,M,18.10,N,33.5,K,A*00
GPS,$GPGGA,141634.000,5131.0205,N,00152.7924,W,1,09,0.9,108.7,M,48.1,M,,0000*47
GPS,$GPRMC,141634.000,A,5131.0205,N,00152.7924,W,20.35,141.86,171113,,,A*4C
BMP085,139000,142,101002,26.93
GPS,$GPVTG,141.86,T,,M,20.35,N,37.7,K,A*00
GPS,$GPGGA,141635.000,5131.0154,N,00152.7856,W,1,09,0.9,109.0,M,48.1,M,,0000*43
GPS,$GPGSA,A,3,14,11,32,28,20,01,17,23,31,,,,1.4,0.9,1.1*36
GPS,$GPGSV,3,1,10,01,74,108,36,32,72,073,28,20,67,239,32,11,47,135,35*76
GPS,$GPGSV,3,2,10,17,40,301,28,23,20,179,27,14,17,038,25,28,12,250,21*78
GPS,$GPGSV,3,3,10,31,08,084,18,19,07,159,28*7F
GPS,$GPRMC,141635.000,A,5131.0154,N,00152.7856,W,22.15,142.94,171113,,,A*4E
BMP085,140000,142,101005,26.68
GPS,$GPVTG,142.94,T,,M,22.15,N,41.0,K,A*06
GPS,$GPGGA,141636.000,5131.0099,N,00152.7787,W,1,09,0.9,109.4,M,48.1,M,,0000*47
GPS,$GPRMC,141636.000,A,5131.0099,N,00152.7787,W,23.91,143.81,171113,,,A*46
BMP085,141000,142,100996,27.43
GPS,$GPVTG,143.81,T,,M,23.91,N,44.3,K,A*08
GPS,$GPGGA,141637.000,5131.0042,N,00152.7713,W,1,09,0.9,110.1,M,48.1,M,,0000*40
GPS,$GPRMC,141637.000,A,5131.0042,N,00152.7713,W,25.37,142.63,171113,,,A*4B
BMP085,142000,142,101011,26.18
GPS,$GPVTG,142.63,T,,M,25.37,N,47.0,K,A*0F
GPS,$GPGGA,141638.000,5130.9982,N,00152.7637,W,1,09,0.9,110.4,M,48.1,M,,0000*40
GPS,$GPRMC,141638.000,A,5130.9982,N,00152.7637,W,26.52,143.84,171113,,,A*46
BMP085,143000,142,100999,27.18
GPS,$GPVTG,143.84,T,,M,26.52,N,49.1,K,A*08
GPS,$GPGGA,141639.000,5130.9921,N,00152.7561,W,1,09,0.9,110.7,M,48.1,M,,0000*4B
GPS,$GPRMC,141639.000,A,5130.9921,N,00152.7561,W,27.19,144.57,171113,,,A*49
BMP085,144000,142,100996,27.43
GPS,$GPVTG,144.57,T,,M,27.19,N,50.4,K,A*02
GPS,$GPGGA,141640.000,5130.9857,N,00152.7485,W,1,09,0.9,111.2,M,48.1,M,,0000*4A
GPS,$GPGSA,A,3,14,11,32,28,20,01,17,23,31,,,,1.4,0.9,1.1*36
GPS,$GPGSV,3,1,10,01,74,108,36,32,72,073,28,20,67,239,33,11,47,135,36*74
GPS,$GPGSV,3,2,10,17,40,301,29,23,20,179,29,14,17,038,25,28,12,250,27*71
GPS,$GPGSV,3,3,10,31,08,084,19,19,07,159,33*74
GPS,$GPRMC,141640.000,A,5130.9857,N,00152.7485,W,27.65,144.74,171113,,,A*46
BMP085,145000,142,100999,27.18
GPS,$GPVTG,144.74,T,,M,27.65,N,51.2,K,A*0F
GPS,$GPGGA,141641.000,5130.9794,N,00152.7408,W,1,09,0.9,111.1,M,48.1,M,,0000*4D
GPS,$GPRMC,141641.000,A,5130.9794,N,00152.7408,W,27.80,144.42,171113,,,A*4C
BMP085,146000,142,100999,27.18
GPS,$GPVTG,144.42,T,,M,27.80,N,51.5,K,A*06
GPS,$GPGGA,141642.000,5130.9730,N,00152.7333,W,1,09,0.9,111.3,M,48.1,M,,0000*4D
GPS,$GPRMC,141642.000,A,5130.9730,N,00152.7333,W,27.75,145.07,171113,,,A*44
BMP085,147000,142,100987,28.18
GPS,$GPVTG,145.07,T,,M,27.75,N,51.4,K,A*0D
GPS,$GPGGA,141643.000,5130.9666,N,00152.7260,W,1,09,0.9,111.6,M,48.1,M,,0000*4C
GPS,$GPRMC,141643.000,A,5130.9666,N,00152.7260,W,27.56,144.95,171113,,,A*4B
BMP085,148000,142,101005,26.68
GPS,$GPVTG,144.95,T,,M,27.56,N,51.0,K,A*02
GPS,$GPGGA,141644.000,5130.9602,N,00152.7187,W,1,09,0.9,111.7,M,48.1,M,,0000*42
GPS,$GPRMC,141644.000,A,5130.9602,N,00152.7187,W,27.68,144.27,171113,,,A*40
BMP085,149000,142,100987,28.18
GPS,$GPVTG,144.27,T,,M,27.68,N,51.3,K,A*05
GPS,$GPGGA,141645.000,5130.9538,N,00152.7113,W,1,09,0.9,111.9,M,48.1,M,,0000*4A
GPS,$GPGSA,A,3,14,11,32,28,20,01,17,23,31,,,,1.4,0.9,1.1*36
GPS,$GPGSV,3,1,10,01,74,108,36,32,72,073,28,20,67,239,34,11,47,135,37*72
GPS,$GPGSV,3,2,10,17,40,301,29,23,20,179,29,14,17,038,28,28,12,250,32*78
GPS,$GPGSV,3,3,10,31,08,084,25,19,07,159,30*78
GPS,$GPRMC,141645.000,A,5130.9538,N,00152.7113,W,27.93,144.83,171113,,,A*4C
BMP085,150000,142,100982,28.60
GPS,$GPVTG,144.83,T,,M,27.93,N,51.7,K,A*0B
GPS,$GPGGA,141646.000,5130.9472,N,00152.7040,W,1,09,0.9,112.1,M,48.1,M,,0000*4A
GPS,$GPRMC,141646.000,A,5130.9472,N,00152.7040,W,28.65,145.15,171113,,,A*4F
BMP085,151000,142,100985,28.35
GPS,$GPVTG,145.15,T,,M,28.65,N,53.1,K,A*07
GPS,$GPGGA,141647.000,5130.9405,N,00152.6964,W,1,09,0.9,112.3,M,48.1,M,,0000*47
GPS,$GPRMC,141647.000,A,5130.9405,N,00152.6964,W,29.56,144.53,171113,,,A*42
BMP085,152000,142,100999,27.18
GPS,$GPVTG,144.53,T,,M,29.56,N,54.7,K,A*04
GPS,$GPGGA,141648.000,5130.9336,N,00152.6886,W,1,09,0.9,112.6,M,48.1,M,,0000*47
GPS,$GPRMC,141648.000,A,5130.9336,N,00152.6886,W,30.42,145.48,171113,,,A*41
BMP085,153000,142,100985,28.35
GPS,$GPVTG,145.48,T,,M,30.42,N,56.3,K,A*04
GPS,$GPGGA,141649.000,5130.9264,N,00152.6808,W,1,09,0.9,112.8,M,48.1,M,,0000*48
GPS,$GPRMC,141649.000,A,5130.9264,N,00152.6808,W,31.34,146.03,171113,,,A*4C
BMP085,154000,142,100967,29.85
GPS,$GPVTG,146.03,T,,M,31.34,N,58.0,K,A*05
GPS,$GPGGA,141650.000,5130.9190,N,00152.6730,W,1,09,0.9,113.1,M,48.1,M,,0000*44
GPS,$GPGSA,A,3,14,11,32,28,20,01,17,23,31,,,,1.4,0.9,1.1*36
GPS,$GPGSV,3,1,11,01,73,109,36,32,71,073,29,20,67,239,34,11,46,136,38*7A
GPS,$GPGSV,3,2,11,17,40,301,23,23,20,179,29,14,17,038,29,28,12,250,29*78
GPS,$GPGSV,3,3,11,31,08,084,28,19,07,159,26,04,00,291,*4D
GPS,$GPRMC,141650.000,A,5130.9190,N,00152.6730,W,31.80,147.39,171113,,,A*4F
BMP085,155000,142,100976,29.10
GPS,$GPVTG,147.39,T,,M,31.80,N,58.9,K,A*0B
GPS,$GPGGA,141651.000,5130.9114,N,00152.6655,W,1,09,0.9,113.1,M,48.1,M,,0000*4B
GPS,$GPRMC,141651.000,A,5130.9114,N,00152.6655,W,32.35,148.43,171113,,,A*4F
BMP085,156000,142,100976,29.10
GPS,$GPVTG,148.43,T,,M,32.35,N,59.9,K,A*05
GPS,$GPGGA,141652.000,5130.9038,N,00152.6580,W,1,09,0.9,113.2,M,48.1,M,,0000*4F
GPS,$GPRMC,141652.000,A,5130.9038,N,00152.6580,W,32.71,149.39,171113,,,A*44
BMP085,157000,142,100976,29.10
GPS,$GPVTG,149.39,T,,M,32.71,N,60.6,K,A*0C
GPS,$GPGGA,141653.000,5130.8958,N,00152.6507,W,1,09,0.9,113.1,M,48.1,M,,0000*4C
GPS,$GPRMC,141653.000,A,5130.8958,N,00152.6507,W,32.93,151.72,171113,,,A*4E
BMP085,158000,142,100970,29.60
GPS,$GPVTG,151.72,T,,M,32.93,N,61.0,K,A*01
GPS,$GPGGA,141654.000,5130.8875,N,00152.6445,W,1,09,0.9,112.8,M,48.1,M,,0000*4A
GPS,$GPRMC,141654.000,A,5130.8875,N,00152.6445,W,33.13,157.23,171113,,,A*4B
BMP085,159000,142,100964,30.10
GPS,$GPVTG,157.23,T,,M,33.13,N,61.4,K,A*0E
GPS,$GPGGA,141655.000,5130.8788,N,00152.6393,W,1,09,0.9,112.5,M,48.1,M,,0000*47
GPS,$GPGSA,A,3,14,11,32,28,20,01,17,23,31,,,,1.4,0.9,1.1*36
GPS,$GPGSV,3,1,11,01,73,109,29,32,71,073,36,20,67,239,27,11,46,136,42*75
GPS,$GPGSV,3,2,11,17,40,301,33,23,20,179,27,14,17,038,30,28,12,250,19*7C
GPS,$GPGSV,3,3,11,31,08,084,27,19,07,159,32,04,00,291,*47
GPS,$GPRMC,141655.000,A,5130.8788,N,00152.6393,W,33.35,160.85,171113,,,A*47
BMP085,160000,143,100976,29.10
GPS,$GPVTG,160.85,T,,M,33.35,N,61.8,K,A*0E
GPS,$GPGGA,141656.000,5130.8699,N,00152.6350,W,1,09,0.9,112.4,M,48.1,M,,0000*4B
GPS,$GPRMC,141656.000,A,5130.8699,N,00152.6350,W,34.02,163.88,171113,,,A*47
BMP085,161000,143,100982,28.60
GPS,$GPVTG,163.88,T,,M,34.02,N,63.0,K,A*09
GPS,$GPGGA,141657.000,5130.8608,N,00152.6308,W,1,09,0.9,112.3,M,48.1,M,,0000*48
GPS,$GPRMC,141657.000,A,5130.8608,N,00152.6308,W,34.26,163.16,171113,,,A*42
BMP085,162000,142,100970,29.60
GPS,$GPVTG,163.16,T,,M,34.26,N,63.5,K,A*0D
GPS,$GPGGA,141658.000,5130.8517,N,00152.6264,W,1,09,0.9,112.2,M,48.1,M,,0000*40
GPS,$GPRMC,141658.000,A,5130.8517,N,00152.6264,W,34.99,163.29,171113,,,A*43
BMP085,163000,142,100990,27.93
GPS,$GPVTG,163.29,T,,M,34.99,N,64.8,K,A*0F
GPS,$GPGGA,141659.000,5130.8423,N,00152.6218,W,1,09,0.9,112.1,M,48.1,M,,0000*4F
GPS,$GPRMC,141659.000,A,5130.8423,N,00152.6218,W,35.59,162.11,171113,,,A*48
BMP085,164000,142,100979,28.85
GPS,$GPVTG,162.11,T,,M,35.59,N,65.9,K,A*08
GPS,$GPGGA,141700.000,5130.8327,N,00152.6170,W,1,09,0.9,112.0,M,48.1,M,,0000*4D
GPS,$GPGSA,A,3,14,11,32,28,20,01,17,23,31,,,,1.4,0.9,1.1*36
GPS,$GPGSV,3,1,11,01,73,109,20,32,71,073,37,20,67,239,28,11,46,136,37*70
GPS,$GPGSV,3,2,11,17,40,301,31,23,20,179,26,14,17,038,32,28,12,250,19*7D
GPS,$GPGSV,3,3,11,31,08,084,22,19,07,159,23,04,00,291,12*41
GPS,$GPRMC,141700.000,A,5130.8327,N,00152.6170,W,36.37,162.94,171113,,,A*4D
BMP085,165000,143,100976,29.10
GPS,$GPVTG,162.94,T,,M,36.37,N,67.4,K,A*01
GPS,$GPGGA,141701.000,5130.8230,N,00152.6124,W,1,08,1.1,111.8,M,48.1,M,,0000*49
GPS,$GPRMC,141701.000,A,5130.8230,N,00152.6124,W,36.23,163.90,171113,,,A*4A
BMP085,166000,142,100967,29.85
GPS,$GPVTG,163.90,T,,M,36.23,N,67.1,K,A*04
GPS,$GPGGA,141702.000,5130.8134,N,00152.6082,W,1,09,0.9,111.7,M,48.1,M,,0000*47
GPS,$GPRMC,141702.000,A,5130.8134,N,00152.6082,W,35.65,164.33,171113,,,A*4C
BMP085,167000,143,100973,29.35
GPS,$GPVTG,164.33,T,,M,35.65,N,66.0,K,A*0B
GPS,$GPGGA,141703.000,5130.8037,N,00152.6045,W,1,09,0.9,111.9,M,48.1,M,,0000*41
GPS,$GPRMC,141703.000,A,5130.8037,N,00152.6045,W,35.81,165.88,171113,,,A*4F
BMP085,168000,143,100964,30.10
GPS,$GPVTG,165.88,T,,M,35.81,N,66.3,K,A*03
GPS,$GPGGA,141704.000,5130.7936,N,00152.6015,W,1,09,0.9,112.7,M,48.1,M,,0000*49
GPS,$GPRMC,141704.000,A,5130.7936,N,00152.6015,W,36.41,169.38,171113,,,A*42
BMP085,169000,143,100967,29.85
GPS,$GPVTG,169.38,T,,M,36.41,N,67.4,K,A*0D
GPS,$GPGGA,141705.000,5130.7835,N,00152.5994,W,1,09,0.9,113.2,M,48.1,M,,0000*4D
GPS,$GPGSA,A,3,14,11,32,28,20,01,17,23,31,,,,1.4,0.9,1.1*36
GPS,$GPGSV,3,1,11,01,73,109,28,32,71,073,36,20,67,239,23,11,46,136,39*7C
GPS,$GPGSV,3,2,11,17,40,301,32,23,20,179,18,14,17,038,22,28,12,250,30*79
GPS,$GPGSV,3,3,11,31,08,084,21,19,07,159,09,04,00,291,*49
GPS,$GPRMC,141705.000,A,5130.7835,N,00152.5994,W,36.62,173.87,171113,,,A*4C
BMP085,170000,143,100967,29.85
GPS,$GPVTG,173.87,T,,M,36.62,N,67.8,K,A*0F
GPS,$GPGGA,141706.000,5130.7734,N,00152.5984,W,1,08,1.1,113.5,M,48.1,M,,0000*4E
GPS,$GPRMC,141706.000,A,5130.7734,N,00152.5984,W,36.43,178.34,171113,,,A*40
BMP085,171000,143,100979,28.85
GPS,$GPVTG,178.34,T,,M,36.43,N,67.5,K,A*02
GPS,$GPGGA,141707.000,5130.7634,N,00152.5987,W,1,09,0.9,113.0,M,48.1,M,,0000*40
GPS,$GPRMC,141707.000,A,5130.7634,N,00152.5987,W,36.27,182.99,171113,,,A*43
BMP085,172000,143,100976,29.10
GPS,$GPVTG,182.99,T,,M,36.27,N,67.2,K,A*05
GPS,$GPGGA,141708.000,5130.7533,N,00152.6007,W,1,09,0.9,113.2,M,48.1,M,,0000*4B
GPS,$GPRMC,141708.000,A,5130.7533,N,00152.6007,W,36.57,189.09,171113,,,A*4F
BMP085,173000,143,100967,29.85
GPS,$GPVTG,189.09,T,,M,36.57,N,67.7,K,A*05
GPS,$GPGGA,141709.000,5130.7433,N,00152.6043,W,1,09,0.9,113.2,M,48.1,M,,0000*4B
GPS,$GPRMC,141709.000,A,5130.7433,N,00152.6043,W,37.10,194.00,171113,,,A*48
BMP085,174000,143,100976,29.10
GPS,$GPVTG,194.00,T,,M,37.10,N,68.7,K,A*0D
GPS,$GPGGA,141710.000,5130.7334,N,00152.6096,W,1,09,0.9,113.4,M,48.1,M,,0000*4D
GPS,$GPGSA,A,3,14,11,32,28,20,01,17,23,31,,,,1.4,0.9,1.1*36
GPS,$GPGSV,3,1,11,01,73,109,37,32,71,073,32,20,67,239,32,11,46,136,39*76
GPS,$GPGSV,3,2,11,17,40,301,29,23,20,179,30,14,17,038,30,28,12,250,26*7D
GPS,$GPGSV,3,3,11,31,08,084,33,19,07,159,27,04,00,291,11*46
GPS,$GPRMC,141710.000,A,5130.7334,N,00152.6096,W,37.24,199.34,171113,,,A*45
BMP085,175000,143,100979,28.85
GPS,$GPVTG,199.34,T,,M,37.24,N,69.0,K,A*06
GPS,$GPGGA,141711.000,5130.7235,N,00152.6152,W,1,09,0.9,113.4,M,48.1,M,,0000*45
GPS,$GPRMC,141711.000,A,5130.7235,N,00152.6152,W,37.24,198.11,171113,,,A*4B
BMP085,176000,143,100970,29.60
GPS,$GPVTG,198.11,T,,M,37.24,N,69.0,K,A*00
GPS,$GPGGA,141712.000,5130.7134,N,00152.6201,W,1,09,0.9,113.6,M,48.1,M,,0000*43
GPS,$GPRMC,141712.000,A,5130.7134,N,00152.6201,W,37.55,194.12,171113,,,A*46
BMP085,177000,143,100982,28.60
GPS,$GPVTG,194.12,T,,M,37.55,N,69.5,K,A*0C
GPS,$GPGGA,141713.000,5130.7031,N,00152.6237,W,1,09,0.9,113.8,M,48.1,M,,0000*4D
GPS,$GPRMC,141713.000,A,5130.7031,N,00152.6237,W,37.32,189.52,171113,,,A*4F
BMP085,178000,143,100964,30.10
GPS,$GPVTG,189.52,T,,M,37.32,N,69.1,K,A*01
GPS,$GPGGA,141714.000,5130.6927,N,00152.6254,W,1,09,0.9,114.0,M,48.1,M,,0000*4F
GPS,$GPRMC,141714.000,A,5130.6927,N,00152.6254,W,37.44,182.86,171113,,,A*41
BMP085,179000,143,100970,29.60
GPS,$GPVTG,182.86,T,,M,37.44,N,69.3,K,A*00
GPS,$GPGGA,141715.000,5130.6822,N,00152.6253,W,1,09,0.9,114.4,M,48.1,M,,0000*49
GPS,$GPGSA,A,3,14,11,32,28,20,01,17,23,31,,,,1.4,0.9,1.1*36
GPS,$GPGSV,3,1,11,01,73,109,29,32,71,073,32,20,67,239,29,11,46,136,40*7D
GPS,$GPGSV,3,2,11,17,40,301,34,23,20,179,22,14,17,038,30,28,12,250,27*73
GPS,$GPGSV,3,3,11,31,08,084,34,19,07,159,25,04,00,291,10*42
GPS,$GPRMC,141715.000,A,5130.6822,N,00152.6253,W,37.35,176.72,171113,,,A*45
BMP085,180000,143,100964,30.10
GPS,$GPVTG,176.72,T,,M,37.35,N,69.2,K,A*07
GPS,$GPGGA,141716.000,5130.6718,N,00152.6239,W,1,09,0.9,114.8,M,48.1,M,,0000*4C
GPS,$GPRMC,141716.000,A,5130.6718,N,00152.6239,W,37.83,172.66,171113,,,A*40
BMP085,181000,143,100967,29.85
GPS,$GPVTG,172.66,T,,M,37.83,N,70.1,K,A*00
GPS,$GPGGA,141717.000,5130.6612,N,00152.6218,W,1,09,0.9,115.0,M,48.1,M,,0000*4C
GPS,$GPRMC,141717.000,A,5130.6612,N,00152.6218,W,38.35,171.87,171113,,,A*47
BMP085,182000,143,100955,30.85
GPS,$GPVTG,171.87,T,,M,38.35,N,71.0,K,A*0E
GPS,$GPGGA,141718.000,5130.6506,N,00152.6196,W,1,09,0.9,115.2,M,48.1,M,,0000*42
GPS,$GPRMC,141718.000,A,5130.6506,N,00152.6196,W,38.44,172.11,171113,,,A*41
BMP085,183000,143,100970,29.60
GPS,$GPVTG,172.11,T,,M,38.44,N,71.2,K,A*06
GPS,$GPGGA,141719.000,5130.6398,N,00152.6175,W,1,09,0.9,114.8,M,48.1,M,,0000*44
GPS,$GPRMC,141719.000,A,5130.6398,N,00152.6175,W,38.69,172.57,171113,,,A*41
BMP085,184000,143,100961,30.35
GPS,$GPVTG,172.57,T,,M,38.69,N,71.7,K,A*0E
GPS,$GPGGA,141720.000,5130.6291,N,00152.6150,W,1,09,0.9,114.6,M,48.1,M,,0000*4F
GPS,$GPGSA,A,3,14,11,32,28,20,01,17,23,31,,,,1.4,0.9,1.1*36
GPS,$GPGSV,3,1,11,01,73,109,28,32,71,073,32,20,68,239,24,11,46,136,41*7F
GPS,$GPGSV,3,2,11,17,40,300,33,23,20,179,25,14,16,038,33,28,12,250,25*72
GPS,$GPGSV,3,3,11,31,08,084,24,19,06,159,25,04,00,291,*43
GPS,$GPRMC,141720.000,A,5130.6291,N,00152.6150,W,38.90,170.42,171113,,,A*44
BMP085,185000,143,100970,29.60
GPS,$GPVTG,170.42,T,,M,38.90,N,72.0,K,A*0A
GPS,$GPGGA,141721.000,5130.6185,N,00152.6116,W,1,09,0.9,114.7,M,48.1,M,,0000*4B
GPS,$GPRMC,141721.000,A,5130.6185,N,00152.6116,W,39.05,166.55,171113,,,A*4D
BMP085,186000,143,100952,31.10
GPS,$GPVTG,166.55,T,,M,39.05,N,72.3,K,A*05
GPS,$GPGGA,141722.000,5130.6079,N,00152.6069,W,1,09,0.9,114.6,M,48.1,M,,0000*42
GPS,$GPRMC,141722.000,A,5130.6079,N,00152.6069,W,39.41,162.74,171113,,,A*42
BMP085,187000,143,100958,30.60
GPS,$GPVTG,162.74,T,,M,39.41,N,73.0,K,A*00
GPS,$GPGGA,141723.000,5130.5976,N,00152.6015,W,1,09,0.9,115.0,M,48.1,M,,0000*4A
GPS,$GPRMC,141723.000,A,5130.5976,N,00152.6015,W,39.51,161.70,171113,,,A*4B
BMP085,188000,143,100955,30.85
GPS,$GPVTG,161.70,T,,M,39.51,N,73.2,K,A*04
GPS,$GPGGA,141724.000,5130.5874,N,00152.5957,W,1,09,0.9,115.3,M,48.1,M,,0000*41
GPS,$GPRMC,141724.000,A,5130.5874,N,00152.5957,W,39.52,160.67,171113,,,A*47
BMP085,189000,143,100952,31.10
GPS,$GPVTG,160.67,T,,M,39.52,N,73.2,K,A*00
GPS,$GPGGA,141725.000,5130.5770,N,00152.5895,W,1,08,1.2,114.9,M,48.1,M,,0000*44
GPS,$GPGSA,A,3,14,11,32,28,20,01,17,31,,,,,1.6,1.2,1.1*3F
GPS,$GPGSV,3,1,11,01,73,109,23,32,71,073,34,20,68,239,25,11,46,136,41*73
GPS,$GPGSV,3,2,11,17,40,300,33,23,20,179,24,14,16,038,28,28,12,250,21*7D
GPS,$GPGSV,3,3,11,31,08,084,20,19,06,159,32,04,00,291,*41
GPS,$GPRMC,141725.000,A,5130.5770,N,00152.5895,W,39.91,158.35,171113,,,A*41
BMP085,190000,143,100952,31.10
GPS,$GPVTG,158.35,T,,M,39.91,N,73.9,K,A*08
GPS,$GPGGA,141726.000,5130.5667,N,00152.5825,W,1,09,0.9,114.4,M,48.1,M,,0000*4D
GPS,$GPRMC,141726.000,A,5130.5667,N,00152.5825,W,40.11,156.23,171113,,,A*41
BMP085,191000,143,100952,31.10
GPS,$GPVTG,156.23,T,,M,40.11,N,74.3,K,A*0A
GPS,$GPGGA,141727.000,5130.5566,N,00152.5747,W,1,09,0.9,114.2,M,48.1,M,,0000*43
GPS,$GPRMC,141727.000,A,5130.5566,N,00152.5747,W,40.45,153.82,171113,,,A*46
BMP085,192000,143,100943,31.85
GPS,$GPVTG,153.82,T,,M,40.45,N,74.9,K,A*0F
GPS,$GPGGA,141728.000,5130.5467,N,00152.5664,W,1,09,0.9,114.2,M,48.1,M,,0000*4C
GPS,$GPRMC,141728.000,A,5130.5467,N,00152.5664,W,40.53,152.87,171113,,,A*4A
BMP085,193000,143,100946,31.60
GPS,$GPVTG,152.87,T,,M,40.53,N,75.1,K,A*05
GPS,$GPGGA,141729.000,5130.5367,N,00152.5581,W,1,09,0.9,114.1,M,48.1,M,,0000*41
GPS,$GPRMC,141729.000,A,5130.5367,N,00152.5581,W,40.57,153.05,171113,,,A*4B
BMP085,194000,143,100922,33.61
GPS,$GPVTG,153.05,T,,M,40.57,N,75.1,K,A*0A
GPS,$GPGGA,141730.000,5130.5266,N,00152.5500,W,1,09,0.9,113.9,M,48.1,M,,0000*4F
GPS,$GPGSA,A,3,14,11,32,28,20,01,17,23,31,,,,1.4,0.9,1.1*36
GPS,$GPGSV,3,1,11,01,73,109,29,32,71,073,34,20,68,239,28,11,46,136,42*77
GPS,$GPGSV,3,2,11,17,40,300,32,23,20,179,24,14,16,038,34,28,12,250,18*7B
GPS,$GPGSV,3,3,11,31,08,084,24,19,06,159,32,04,00,291,*45
GPS,$GPRMC,141730.000,A,5130.5266,N,00152.5500,W,40.78,154.09,171113,,,A*4C
BMP085,195000,143,100922,33.61
GPS,$GPVTG,154.09,T,,M,40.78,N,75.5,K,A*08
GPS,$GPGGA,141731.000,5130.5164,N,00152.5422,W,1,08,1.1,114.3,M,48.1,M,,0000*4B
GPS,$GPRMC,141731.000,A,5130.5164,N,00152.5422,W,40.96,155.51,171113,,,A*41
BMP085,196000,143,100931,32.86
GPS,$GPVTG,155.51,T,,M,40.96,N,75.9,K,A*08
GPS,$GPGGA,141732.000,5130.5062,N,00152.5345,W,1,09,0.9,114.6,M,48.1,M,,0000*44
GPS,$GPRMC,141732.000,A,5130.5062,N,00152.5345,W,40.76,154.63,171113,,,A*4D
BMP085,197000,143,100931,32.86
GPS,$GPVTG,154.63,T,,M,40.76,N,75.5,K,A*0A
GPS,$GPGGA,141733.000,5130.4960,N,00152.5267,W,1,09,0.9,114.4,M,48.1,M,,0000*4C
GPS,$GPRMC,141733.000,A,5130.4960,N,00152.5267,W,40.92,155.07,171113,,,A*4E
BMP085,198000,143,100928,33.11
GPS,$GPVTG,155.07,T,,M,40.92,N,75.8,K,A*0E
GPS,$GPGGA,141734.000,5130.4859,N,00152.5188,W,1,09,0.9,114.9,M,48.1,M,,0000*4F
GPS,$GPRMC,141734.000,A,5130.4859,N,00152.5188,W,40.89,154.78,171113,,,A*43
BMP085,199000,143,100925,33.36
GPS,$GPVTG,154.78,T,,M,40.89,N,75.7,K,A*02
GPS,$GPGGA,141735.000,5130.4758,N,00152.5108,W,1,09,0.9,115.1,M,48.1,M,,0000*41
GPS,$GPGSA,A,3,14,11,32,28,20,01,17,23,31,,,,1.4,0.9,1.1*36
GPS,$GPGSV,3,1,11,01,73,109,28,32,71,073,34,20,68,239,29,11,46,136,42*77
GPS,$GPGSV,3,2,11,17,40,300,33,23,20,179,20,14,16,038,34,28,12,250,18*7E
GPS,$GPGSV,3,3,11,31,08,084,25,19,06,159,31,04,00,291,13*45
GPS,$GPRMC,141735.000,A,5130.4758,N,00152.5108,W,40.73,154.04,171113,,,A*4A
BMP085,200000,143,100925,33.36
GPS,$GPVTG,154.04,T,,M,40.73,N,75.4,K,A*0F
GPS,$GPGGA,141736.000,5130.4657,N,00152.5028,W,1,09,0.9,115.2,M,48.1,M,,0000*4C
GPS,$GPRMC,141736.000,A,5130.4657,N,00152.5028,W,40.43,154.15,171113,,,A*47
BMP085,201000,143,100922,33.61
GPS,$GPVTG,154.15,T,,M,40.43,N,74.9,K,A*00
GPS,$GPGGA,141737.000,5130.4556,N,00152.4951,W,1,09,0.9,114.8,M,48.1,M,,0000*42
GPS,$GPRMC,141737.000,A,5130.4556,N,00152.4951,W,40.17,154.73,171113,,,A*43
BMP085,202000,143,100931,32.86
GPS,$GPVTG,154.73,T,,M,40.17,N,74.4,K,A*0C
GPS,$GPGGA,141738.000,5130.4457,N,00152.4875,W,1,09,0.9,114.6,M,48.1,M,,0000*44
GPS,$GPRMC,141738.000,A,5130.4457,N,00152.4875,W,39.69,154.82,171113,,,A*42
BMP085,203000,143,100922,33.61
GPS,$GPVTG,154.82,T,,M,39.69,N,73.5,K,A*03
GPS,$GPGGA,141739.000,5130.4360,N,00152.4799,W,1,09,0.9,115.3,M,48.1,M,,0000*4F
GPS,$GPRMC,141739.000,A,5130.4360,N,00152.4799,W,39.16,155.16,171113,,,A*49
BMP085,204000,143,100916,34.11
GPS,$GPVTG,155.16,T,,M,39.16,N,72.5,K,A*06
GPS,$GPGGA,141740.000,5130.4262,N,00152.4729,W,1,09,0.9,115.6,M,48.1,M,,0000*4C
GPS,$GPGSA,A,3,14,11,32,28,20,01,17,23,31,,,,1.4,0.9,1.1*36
GPS,$GPGSV,3,1,11,01,73,109,21,32,71,073,36,20,68,239,29,11,46,136,42*7C
GPS,$GPGSV,3,2,11,17,40,300,35,23,20,179,20,14,16,038,33,28,12,250,19*7E
GPS,$GPGSV,3,3,11,31,08,084,26,19,06,159,32,04,00,291,*47
GPS,$GPRMC,141740.000,A,5130.4262,N,00152.4729,W,38.61,157.05,171113,,,A*4E
BMP085,205000,143,100910,34.61
GPS,$GPVTG,157.05,T,,M,38.61,N,71.5,K,A*04
GPS,$GPGGA,141741.000,5130.4164,N,00152.4667,W,1,09,0.9,115.8,M,48.1,M,,0000*4D
GPS,$GPRMC,141741.000,A,5130.4164,N,00152.4667,W,37.72,159.23,171113,,,A*46
BMP085,206000,143,100913,34.36
GPS,$GPVTG,159.23,T,,M,37.72,N,69.9,K,A*06
GPS,$GPGGA,141742.000,5130.4068,N,00152.4611,W,1,09,0.9,115.5,M,48.1,M,,0000*4F
GPS,$GPRMC,141742.000,A,5130.4068,N,00152.4611,W,36.64,160.03,171113,,,A*47
BMP085,207000,143,100910,34.61
GPS,$GPVTG,160.03,T,,M,36.64,N,67.8,K,A*07
GPS,$GPGGA,141743.000,5130.3973,N,00152.4558,W,1,09,0.9,115.3,M,48.1,M,,0000*42
GPS,$GPRMC,141743.000,A,5130.3973,N,00152.4558,W,36.02,161.15,171113,,,A*4A
BMP085,208000,143,100922,33.61
GPS,$GPVTG,161.15,T,,M,36.02,N,66.7,K,A*0F
GPS,$GPGGA,141744.000,5130.3880,N,00152.4507,W,1,09,0.9,115.2,M,48.1,M,,0000*43
GPS,$GPRMC,141744.000,A,5130.3880,N,00152.4507,W,35.12,160.46,171113,,,A*4F
BMP085,209000,143,100919,33.86
GPS,$GPVTG,160.46,T,,M,35.12,N,65.0,K,A*0E
GPS,$GPGGA,141745.000,5130.3790,N,00152.4455,W,1,09,0.9,115.2,M,48.1,M,,0000*4A
GPS,$GPGSA,A,3,14,11,32,28,20,01,17,23,31,,,,1.4,0.9,1.1*36
GPS,$GPGSV,3,1,11,01,73,109,21,32,71,073,36,20,68,239,29,11,46,136,41*7F
GPS,$GPGSV,3,2,11,17,40,300,31,23,20,179,26,14,16,038,25,28,12,250,19*7B
GPS,$GPGSV,3,3,11,31,08,084,22,19,06,159,31,04,00,291,12*43
GPS,$GPRMC,141745.000,A,5130.3790,N,00152.4455,W,34.48,159.17,171113,,,A*46
BMP085,210000,143,100913,34.36
GPS,$GPVTG,159.17,T,,M,34.48,N,63.9,K,A*01
GPS,$GPGGA,141746.000,5130.3702,N,00152.4399,W,1,09,0.9,115.3,M,48.1,M,,0000*44
GPS,$GPRMC,141746.000,A,5130.3702,N,00152.4399,W,34.32,157.80,171113,,,A*44
BMP085,211000,143,100902,35.28
GPS,$GPVTG,157.80,T,,M,34.32,N,63.6,K,A*03
GPS,$GPGGA,141747.000,5130.3616,N,00152.4339,W,1,09,0.9,115.4,M,48.1,M,,0000*4C
GPS,$GPRMC,141747.000,A,5130.3616,N,00152.4339,W,33.92,155.34,171113,,,A*4B
BMP085,212000,143,100907,34.86
GPS,$GPVTG,155.34,T,,M,33.92,N,62.8,K,A*0C
GPS,$GPGGA,141748.000,5130.3533,N,00152.4274,W,1,09,0.9,115.7,M,48.1,M,,0000*4C
GPS,$GPRMC,141748.000,A,5130.3533,N,00152.4274,W,33.94,153.86,171113,,,A*41
BMP085,213000,143,100902,35.28
GPS,$GPVTG,153.86,T,,M,33.94,N,62.8,K,A*05
GPS,$GPGGA,141749.000,5130.3449,N,00152.4207,W,1,09,0.9,115.8,M,48.1,M,,0000*4A
GPS,$GPRMC,141749.000,A,5130.3449,N,00152.4207,W,34.31,153.32,171113,,,A*4F
BMP085,214000,144,100908,34.78
GPS,$GPVTG,153.32,T,,M,34.31,N,63.5,K,A*0E
GPS,$GPGGA,141750.000,5130.3364,N,00152.4140,W,1,09,0.9,115.7,M,48.1,M,,0000*45
GPS,$GPGSA,A,3,14,11,32,28,20,01,17,23,31,,,,1.4,0.9,1.1*36
GPS,$GPGSV,3,1,11,01,73,109,28,32,71,072,36,20,68,239,29,11,46,136,42*74
GPS,$GPGSV,3,2,11,17,40,300,32,23,20,179,22,14,16,037,35,28,12,250,20*78
GPS,$GPGSV,3,3,11,31,08,083,21,19,06,159,33,04,00,291,07*41
GPS,$GPRMC,141750.000,A,5130.3364,N,00152.4140,W,34.09,153.43,171113,,,A*42
BMP085,215000,143,100887,36.53
GPS,$GPVTG,153.43,T,,M,34.09,N,63.1,K,A*07
GPS,$GPGGA,141751.000,5130.3281,N,00152.4073,W,1,08,1.0,115.5,M,48.1,M,,0000*44
GPS,$GPRMC,141751.000,A,5130.3281,N,00152.4073,W,33.83,152.51,171113,,,A*4F
BMP085,216000,143,100893,36.03
GPS,$GPVTG,152.51,T,,M,33.83,N,62.6,K,A*06
GPS,$GPGGA,141752.000,5130.3198,N,00152.4006,W,1,08,1.0,115.3,M,48.1,M,,0000*48
GPS,$GPRMC,141752.000,A,5130.3198,N,00152.4006,W,33.51,153.87,171113,,,A*40
BMP085,217000,143,100887,36.53
GPS,$GPVTG,153.87,T,,M,33.51,N,62.1,K,A*04
